[{"name":"Brigham and Women's Hospital","address":"At, Chestnut Hill, MA, 02467, USA","display_address":["At","Chestnut Hill, MA 02467"],"phone":"6172780880","image_url":null,"yelp_id":"brigham-and-womens-hospital-chestnut-hill","city":"Boston","country":"USA","hoods":[],"categories":["Hospitals"],"location":{"lat":"42.3030933","long":"-71.1506955"},"rating":{"stars":1.0,"count":1}},{"name":"Kendall Press","address":"1 Main St, Ste 105, Cambridge, MA, 02142, USA","display_address":["1 Main St","Ste 105","Cambridge, MA 02142"],"phone":"6173542584","image_url":"http://s3-media3.fl.yelpcdn.com/bphoto/i8UmoH44GaHJ-JQb1oFKBQ/ms.jpg","yelp_id":"kendall-press-cambridge","city":"Boston","country":"USA","hoods":["East Cambridge","Kendall Square/MIT"],"categories":["Printing Services"],"location":{"lat":"42.3621656","long":"-71.0799907"},"rating":{"stars":4.5,"count":21}},{"name":"Quest Diagnostics Incorporated","address":"1 Brookline Pl, Ste 301, Brookline, MA, 02445, USA","display_address":["1 Brookline Pl","Ste 301","Brookline, MA 02445"],"phone":"6177358870","image_url":null,"yelp_id":"quest-diagnostics-incorporated-brookline-3","city":"Boston","country":"USA","hoods":["Brookline Village"],"categories":["Diagnostic Services"],"location":{"lat":"42.3327163","long":"-71.1150486"},"rating":{"stars":1.0,"count":3}},{"name":"Jackson Square","address":", Jamaica Plain, MA, 02130, USA","display_address":["Jamaica Plain, MA 02130"],"phone":null,"image_url":"http://s3-media1.fl.yelpcdn.com/bphoto/KkUXRkp0143m6hfDRjbXtA/ms.jpg","yelp_id":"jackson-square-jamaica-plain","city":"Boston","country":"USA","hoods":["Jamaica Plain"],"categories":["Local Flavor"],"location":{"lat":"42.3097365","long":"-71.1151431"},"rating":{"stars":2.5,"count":2}},{"name":"Brickhouse Pizza & Grille","address":"256 Washington St, Cambridge St & Shannon St, Brighton, MA, 02135, USA","display_address":["256 Washington St","Brighton, MA 02135"],"phone":"6177895559","image_url":"http://s3-media4.fl.yelpassets.com/bphoto/or2kdgyVFEAbDd4hY58uUA/ms.jpg","yelp_id":"brickhouse-pizza-and-grille-brighton","city":"Boston","country":"USA","hoods":[],"categories":["Pizza"],"location":{"lat":"42.3465184","long":"-71.1496531"},"rating":{"stars":4.5,"count":160}},{"name":"Car Care","address":"375 Longwood Ave, Brookline Ave & Pilgrim Rd, Boston, MA, 02215, USA","display_address":["375 Longwood Ave","Boston, MA 02215"],"phone":"6172777400","image_url":"http://s3-media2.fl.yelpcdn.com/bphoto/2tn5fGyv8d-UtsGl6oKGBw/ms.jpg","yelp_id":"car-care-boston","city":"Boston","country":"USA","hoods":[],"categories":["Auto Detailing"],"location":{"lat":"42.3398361","long":"-71.1079751"},"rating":{"stars":3.0,"count":22}},{"name":"Donovan Bros Automotive","address":"610 Hancock St, Quincy, MA, 02170, USA","display_address":["610 Hancock St","Quincy, MA 02170"],"phone":"6173285979","image_url":"http://s3-media4.fl.yelpcdn.com/bphoto/n9En1UvZGE1YKJvUOnRveg/ms.jpg","yelp_id":"donovan-bros-automotive-quincy","city":"Boston","country":"USA","hoods":[],"categories":["Auto Repair"],"location":{"lat":"42.269083","long":"-71.017972"},"rating":{"stars":4.5,"count":3}},{"name":"The Hub Express","address":"North Station, 126 Causeway St, Boston, MA, 02114, USA","display_address":["North Station","126 Causeway St","Boston, MA 02114"],"phone":null,"image_url":null,"yelp_id":"the-hub-express-boston","city":"Boston","country":"USA","hoods":[],"categories":["Food","Bars"],"location":{"lat":"42.3652917","long":"-71.0646337"},"rating":{"stars":2.0,"count":1}},{"name":"Bangkok Blue","address":"651 Boylston St, Dartmouth St & Exeter St, Boston, MA, 02116, USA","display_address":["651 Boylston St","Boston, MA 02116"],"phone":"6172661010","image_url":"http://s3-media4.fl.yelpcdn.com/bphoto/NqaV41MdeqGCGZmSVLkfpw/ms.jpg","yelp_id":"bangkok-blue-boston","city":"Boston","country":"USA","hoods":["Back Bay"],"categories":["Thai"],"location":{"lat":"42.350693","long":"-71.0800771"},"rating":{"stars":3.0,"count":107}},{"name":"Community Gardens on Berkeley St","address":"Berkeley St and Tremont St, Boston, MA, 02118, USA","display_address":["Berkeley St and Tremont St","Boston, MA 02118"],"phone":null,"image_url":"http://s3-media2.fl.yelpcdn.com/bphoto/ix9vUlPyikFSHRCoWNNYaA/ms.jpg","yelp_id":"community-gardens-on-berkeley-st-boston","city":"Boston","country":"USA","hoods":["South End"],"categories":["Parks"],"location":{"lat":"42.3452651","long":"-71.0698391"},"rating":{"stars":4.5,"count":2}},{"name":"TJ Maxx","address":"525 Harvard St, Brookline, MA, 02446, USA","display_address":["525 Harvard St","Brookline, MA 02446"],"phone":"6172325420","image_url":"http://s3-media1.fl.yelpassets.com/bphoto/HdTps1zqsZ_j17bghTPIlA/ms.jpg","yelp_id":"tj-maxx-brookline","city":"Boston","country":"USA","hoods":["Allston/Brighton"],"categories":["Fashion"],"location":{"lat":"42.3488994","long":"-71.1292742"},"rating":{"stars":3.5,"count":41}},{"name":"First Church of Somerville","address":"Davis Square Station, 89 College Ave, Somerville, MA, 02144, USA","display_address":["Davis Square Station","89 College Ave","Somerville, MA 02144"],"phone":"6176256485","image_url":"http://s3-media1.fl.yelpcdn.com/bphoto/0LsxOtwuCQ-oDS7xRkugJA/ms.jpg","yelp_id":"first-church-of-somerville-somerville-2","city":"Boston","country":"USA","hoods":[],"categories":["Churches"],"location":{"lat":"42.3991331","long":"-71.1193706"},"rating":{"stars":5.0,"count":6}},{"name":"Ann Taylor","address":"800 Boylston Street, Gloucester St & Fairfield St, Boston, MA, 02199, USA","display_address":["800 Boylston Street","Boston, MA 02199"],"phone":"6174219097","image_url":"http://s3-media4.fl.yelpassets.com/bphoto/WYeQb7e-1sNuQTiBG6_OoA/ms.jpg","yelp_id":"ann-taylor-boston","city":"Boston","country":"USA","hoods":["Back Bay"],"categories":["Shoe Stores","Women's Clothing"],"location":{"lat":"42.3484574","long":"-71.0826223"},"rating":{"stars":3.5,"count":14}},{"name":"Montien Thai Restaurant","address":"63 Stuart St, Tremont St & Eliot Pl, Boston, MA, 02116, USA","display_address":["63 Stuart St","Boston, MA 02116"],"phone":"6173385600","image_url":"http://s3-media3.fl.yelpassets.com/bphoto/powmXGMm938AiIEOZM9_Ew/ms.jpg","yelp_id":"montien-thai-restaurant-boston","city":"Boston","country":"USA","hoods":["Chinatown"],"categories":["Lounges","Sushi Bars","Thai"],"rating":{"stars":3.5,"count":271}},{"name":"Egleston Nail Salon","address":"3101 Washington St, Roxbury, MA, 02119, USA","display_address":["3101 Washington St","Roxbury, MA 02119"],"phone":"6174420288","image_url":null,"yelp_id":"egleston-nail-salon-roxbury","city":"Boston","country":"USA","hoods":["Egleston Square"],"categories":["Nail Salons"],"location":{"lat":"42.3151423","long":"-71.0991327"},"rating":{"stars":3.5,"count":3}},{"name":"Porter Square Galleria","address":"1 Porter Sq, Cambridge, MA, 02140, USA","display_address":["1 Porter Sq","Cambridge, MA 02140"],"phone":"6175762939","image_url":"http://s3-media2.fl.yelpassets.com/bphoto/fkVI3uOxto_SkW2Gdj7Img/ms.jpg","yelp_id":"porter-square-galleria-cambridge","city":"Boston","country":"USA","hoods":["Porter Square"],"categories":["Shopping Centers"],"location":{"lat":"42.3892041","long":"-71.1199644"},"rating":{"stars":3.0,"count":2}},{"name":"Tortoise and the Hare Sculpture","address":"206 Clarendon St, Boylston St & Providence St, Boston, MA, 02116, USA","display_address":["206 Clarendon St","Boston, MA 02116"],"phone":null,"image_url":"http://s3-media4.fl.yelpcdn.com/bphoto/lN0us7jm6wxwz9rVqCYMcg/ms.jpg","yelp_id":"tortoise-and-the-hare-sculpture-boston","city":"Boston","country":"USA","hoods":["Back Bay"],"categories":["Landmarks & Historical Buildings"],"location":{"lat":"42.3514326","long":"-71.0704582"},"rating":{"stars":5.0,"count":1}},{"name":"The New England Institute of Art","address":"10 Brookline Place West, Brookline, MA, 02445, USA","display_address":["10 Brookline Place West","Brookline, MA 02445"],"phone":"8882336170","image_url":"http://s3-media1.fl.yelpcdn.com/bphoto/3WQrXY_Ru3_Nou5loJDzyw/ms.jpg","yelp_id":"the-new-england-institute-of-art-brookline","city":"Boston","country":"USA","hoods":[],"categories":["Colleges & Universities","Art Schools","Cooking Schools"],"location":{"lat":"42.332204","long":"-71.1169304"},"rating":{"stars":1.5,"count":9}},{"name":"Made in Fort Point","address":"315 A St, Necco Ct & Wormwood St, Boston, MA, 02210, USA","display_address":["315 A St","Boston, MA 02210"],"phone":"6174231100","image_url":"http://s3-media1.fl.yelpassets.com/bphoto/VNhHLfbnSvAg0INKZmezPQ/ms.jpg","yelp_id":"made-in-fort-point-boston-3","city":"Boston","country":"USA","hoods":["South Boston","Waterfront"],"categories":["Art Galleries","Arts & Crafts"],"location":{"lat":"42.3472509","long":"-71.0498773"},"rating":{"stars":5.0,"count":1}},{"name":"Adams Street Motors","address":"326 Adams St, Gibson St & Christopher St, Boston, MA, 02122, USA","display_address":["326 Adams St","Boston, MA 02122"],"phone":"6174369388","image_url":null,"yelp_id":"adams-street-motors-boston","city":"Boston","country":"USA","hoods":["Dorchester"],"categories":["Car Dealers"],"location":{"lat":"42.298759","long":"-71.057466"},"rating":{"stars":3.0,"count":2}},{"name":"Hemlock Ink","address":"19 Properzi Way, Somerville, MA, 02143, USA","display_address":["19 Properzi Way","Somerville, MA 02143"],"phone":"6176253460","image_url":"http://s3-media1.fl.yelpcdn.com/bphoto/z8n-HU0tYzE4ezyaPzjF6A/ms.jpg","yelp_id":"hemlock-ink-somerville","city":"Boston","country":"USA","hoods":[],"categories":["Printing Services","Screen Printing/T-Shirt Printing"],"location":{"lat":"42.3823413","long":"-71.1057071"},"rating":{"stars":5.0,"count":21}},{"name":"Ula Café","address":"284 Amory St, Porter St & New Minton St, Jamaica Plain, MA, 02130, USA","display_address":["284 Amory St","Jamaica Plain, MA 02130"],"phone":"6175247890","image_url":"http://s3-media3.fl.yelpassets.com/bphoto/Owbia-5UeJTbVJ2nkaVSDg/ms.jpg","yelp_id":"ula-café-jamaica-plain-4","city":"Boston","country":"USA","hoods":["Jamaica Plain"],"categories":["Bakeries","Coffee & Tea","Sandwiches"],"location":{"lat":"42.3154466","long":"-71.103195"},"rating":{"stars":4.0,"count":325}},{"name":"Dunkin Donuts","address":"256 Boston St, Roseclair St & Columbia Rd, Dorchester, MA, 02125, USA","display_address":["256 Boston St","Dorchester, MA 02125"],"phone":"6172888361","image_url":"http://s3-media2.fl.yelpcdn.com/bphoto/LlhMMXUdrcADA01DNMg5Hg/ms.jpg","yelp_id":"dunkin-donuts-dorchester-3","city":"Boston","country":"USA","hoods":["Dorchester"],"categories":["Donuts"],"location":{"lat":"42.3198086","long":"-71.0623941"},"rating":{"stars":3.0,"count":6}},{"name":"Pad Thai Cafe","address":"1116 Boylston St, Boston, MA, 02115, USA","display_address":["1116 Boylston St","Boston, MA 02115"],"phone":"6172473399","image_url":"http://s3-media1.fl.yelpassets.com/bphoto/Prv_PNh25cV-llvg6A5wOg/ms.jpg","yelp_id":"pad-thai-cafe-boston","city":"Boston","country":"USA","hoods":[],"categories":["Thai"],"location":{"lat":"42.3385637","long":"-71.0966091"},"rating":{"stars":4.0,"count":267}},{"name":"HubFashion","address":"10 Post Office Sq, Boston, MA, 02109, USA","display_address":["10 Post Office Sq","Boston, MA 02109"],"phone":"6173500333","image_url":"http://s3-media1.fl.yelpassets.com/bphoto/G7g3lQZhWh10D6HQddBsXQ/ms.jpg","yelp_id":"hubfashion-boston","city":"Boston","country":"USA","hoods":["Financial District"],"categories":["Personal Shopping"],"location":{"lat":"42.3574107","long":"-71.0563035"},"rating":{"stars":5.0,"count":2}},{"name":"Artie's Famous Sausage","address":"34 Yawkey Way, Brookline Ave & Van Ness St, Boston, MA, 02215, USA","display_address":["34 Yawkey Way","Boston, MA 02215"],"phone":null,"image_url":"http://s3-media2.fl.yelpassets.com/bphoto/U7r2slqv4hUOPRH9OgOdNQ/ms.jpg","yelp_id":"arties-famous-sausage-boston","city":"Boston","country":"USA","hoods":["Fenway"],"categories":["Food Stands"],"location":{"lat":"42.345397","long":"-71.0982509"},"rating":{"stars":4.0,"count":1}},{"name":"Mozzarellas Pizzeria","address":"538 Adams St, Milton, MA, 02186, USA","display_address":["538 Adams St","Milton, MA 02186"],"phone":"6176988812","image_url":null,"yelp_id":"mozzarellas-pizzeria-milton","city":"Boston","country":"USA","hoods":[],"categories":["Pizza"],"location":{"lat":"42.2583411","long":"-71.0406547"},"rating":{"stars":2.0,"count":5}},{"name":"Footstock Shoes","address":"133 Newbury St, Clarendon St & Dartmouth St, Boston, MA, 02116, USA","display_address":["133 Newbury St","Boston, MA 02116"],"phone":"6175367124","image_url":null,"yelp_id":"footstock-shoes-boston","city":"Boston","country":"USA","hoods":["Back Bay"],"categories":["Shoe Stores"],"location":{"lat":"42.3485434","long":"-71.076578"},"rating":{"stars":1.0,"count":1}},{"name":"Brighton Family Dental Group","address":"77 Warren St, Brighton, MA, 02135, USA","display_address":["77 Warren St","Brighton, MA 02135"],"phone":"6175625210","image_url":"http://s3-media2.fl.yelpcdn.com/bphoto/O2Rxg7V6A3JHvjIZQKAejw/ms.jpg","yelp_id":"brighton-family-dental-group-brighton-2","city":"Boston","country":"USA","hoods":[],"categories":["General Dentistry"],"location":{"lat":"42.3489571","long":"-71.1426625"},"rating":{"stars":5.0,"count":12}},{"name":"Gund Kwok Asian Women Lion & Dragon Dance Troupe","address":"China Trade Center, 2 Boylston St, Boston, MA, 02116, USA","display_address":["China Trade Center","2 Boylston St","Boston, MA 02116"],"phone":null,"image_url":"http://s3-media1.fl.yelpcdn.com/bphoto/_ZHQKOf8aOmWXGV1FEl0Ng/ms.jpg","yelp_id":"gund-kwok-asian-women-lion-and-dragon-dance-troupe-boston","city":"Boston","country":"USA","hoods":["Chinatown"],"categories":["Performing Arts"],"location":{"lat":"42.3520816","long":"-71.0632355"},"rating":{"stars":5.0,"count":1}},{"name":"Interstate Rental Service","address":"384 Amory St, Green St & Oakdale Pl, Boston, MA, 02130, USA","display_address":["384 Amory St","Boston, MA 02130"],"phone":"6175226200","image_url":"http://s3-media4.fl.yelpassets.com/bphoto/zTutN_y9zh2MOvqxc4T0ZQ/ms.jpg","yelp_id":"interstate-rental-service-boston","city":"Boston","country":"USA","hoods":["Jamaica Plain"],"categories":["Party Supplies","Contractors","Furniture Stores"],"rating":{"stars":4.0,"count":1}},{"name":"Icg C Computer","address":"358 Boylston Street, Brookline, MA, 02445, USA","display_address":["358 Boylston Street","Brookline, MA 02445"],"phone":"6177385289","image_url":null,"yelp_id":"icg-c-computer-brookline","city":"Boston","country":"USA","hoods":[],"categories":["Computers"],"rating":{"stars":4.0,"count":5}},{"name":"St Mary's Orthodox Church","address":"8 Inman St, Cambridge, MA, 02139, USA","display_address":["8 Inman St","Cambridge, MA 02139"],"phone":"6175471234","image_url":"http://s3-media3.fl.yelpcdn.com/bphoto/pMsWzPnJvJHg0ncpdMnqlQ/ms.jpg","yelp_id":"st-marys-orthodox-church-cambridge","city":"Boston","country":"USA","hoods":["Central Square"],"categories":["Churches"],"location":{"lat":"42.3668235","long":"-71.1049682"},"rating":{"stars":5.0,"count":2}},{"name":"Pure Line Skin Care","address":"Harvard Sq, 58 JFK St, Cambridge, MA, 02138, USA","display_address":["Harvard Sq","58 JFK St","Cambridge, MA 02138"],"phone":"6178687873","image_url":"http://s3-media3.fl.yelpcdn.com/bphoto/UV2ZzyT7wyY2Fh2WDcWzHw/ms.jpg","yelp_id":"pure-line-skin-care-cambridge","city":"Boston","country":"USA","hoods":[],"categories":["Hair Removal","Skin Care"],"location":{"lat":"42.3735321","long":"-71.1189597"},"rating":{"stars":4.0,"count":43}},{"name":"Fast Lane - MA Turnpike Authority","address":"185 Massachusetts Ave, Boston, MA, 02228, USA","display_address":["185 Massachusetts Ave","Boston, MA 02228"],"phone":null,"image_url":"http://s3-media1.fl.yelpcdn.com/bphoto/2u688jBM8e6t9-v-GVjRzw/ms.jpg","yelp_id":"fast-lane-ma-turnpike-authority-boston-2","city":"Boston","country":"USA","hoods":[],"categories":["Transportation"],"location":{"lat":"42.3454645","long":"-71.0871014"},"rating":{"stars":2.0,"count":24}},{"name":"Caffe Bella Vita","address":"30 Charles St, Chestnut St & Branch St, Boston, MA, 02114, USA","display_address":["30 Charles St","Boston, MA 02114"],"phone":"6177204505","image_url":"http://s3-media2.fl.yelpassets.com/bphoto/Jf7MIIo4972q5Ur5GoL7jA/ms.jpg","yelp_id":"caffe-bella-vita-boston","city":"Boston","country":"USA","hoods":["Beacon Hill"],"categories":["Coffee & Tea","Ice Cream & Frozen Yogurt","Sandwiches"],"location":{"lat":"42.356916","long":"-71.0687687"},"rating":{"stars":2.5,"count":113}},{"name":"The Tannery","address":"39 Brattle St, Cambridge, MA, 02138, USA","display_address":["39 Brattle St","Cambridge, MA 02138"],"phone":"6174911811","image_url":"http://s3-media1.fl.yelpassets.com/bphoto/3F2um-9AH3GuOfOSaCU0pA/ms.jpg","yelp_id":"the-tannery-cambridge-2","city":"Boston","country":"USA","hoods":["Harvard Square"],"categories":["Men's Clothing","Shoe Stores","Women's Clothing"],"location":{"lat":"42.3737939","long":"-71.1211049"},"rating":{"stars":2.5,"count":191}},{"name":"Ron's Automotive","address":"4150 Washington St, Bexley Rd & Firth Rd, Roslindale, MA, 02131, USA","display_address":["4150 Washington St","Roslindale, MA 02131"],"phone":"6173239725","image_url":"http://s3-media4.fl.yelpcdn.com/bphoto/ci28hGSX4EIlfrCsDfD--w/ms.jpg","yelp_id":"rons-automotive-roslindale","city":"Boston","country":"USA","hoods":["Roslindale"],"categories":["Auto Repair"],"location":{"lat":"42.2878871","long":"-71.1245916"},"rating":{"stars":4.5,"count":9}},{"name":"Dillon's","address":"955 Boylston St, St Cecilia St & I-90, Boston, MA, 02115, USA","display_address":["955 Boylston St","Boston, MA 02115"],"phone":"6174211818","image_url":"http://s3-media1.fl.yelpassets.com/bphoto/ttuIq7yV81aXrzjRZ4QDkw/ms.jpg","yelp_id":"dillons-boston","city":"Boston","country":"USA","hoods":["Back Bay"],"categories":["Bars","American (Traditional)"],"location":{"lat":"42.3499293","long":"-71.0862275"},"rating":{"stars":3.0,"count":289}},{"name":"The Common Ground","address":"85 Harvard Ave, Hefferan St & Gardner St, Allston, MA, 02134, USA","display_address":["85 Harvard Ave","Allston, MA 02134"],"phone":"6177832071","image_url":"http://s3-media4.fl.yelpassets.com/bphoto/K39r25FEZ9zYb8igQO6hsw/ms.jpg","yelp_id":"the-common-ground-allston","city":"Boston","country":"USA","hoods":["Allston/Brighton"],"categories":["American (Traditional)","Gastropubs"],"location":{"lat":"42.353677","long":"-71.1275599"},"rating":{"stars":3.5,"count":255}},{"name":"Brookline Driving School","address":"167 Corey Rd, Ste 201, Summit Ave & Washington St, Brighton, MA, 02135, USA","display_address":["167 Corey Rd","Ste 201","Brighton, MA 02135"],"phone":"6172329400","image_url":null,"yelp_id":"brookline-driving-school-brighton","city":"Boston","country":"USA","hoods":[],"categories":["Driving Schools"],"location":{"lat":"42.3506338","long":"-71.1679214"},"rating":{"stars":3.0,"count":40}},{"name":"Sunset Limousine Service","address":", Reading, MA, 01867, USA","display_address":["Reading, MA 01867"],"phone":"7819421278","image_url":"http://s3-media1.fl.yelpcdn.com/bphoto/iWhZVxCZCi462e7T3lM4Hg/ms.jpg","yelp_id":"sunset-limousine-service-reading","city":"Boston","country":"USA","hoods":[],"categories":["Party Bus Rentals","Limos"],"location":{"lat":"42.5256563","long":"-71.0952891"},"rating":{"stars":3.0,"count":2}},{"name":"Herrell's Ice Cream","address":", Watertown, MA, 02471, USA","display_address":["Watertown, MA 02471"],"phone":"6179243884","image_url":null,"yelp_id":"herrells-ice-cream-watertown","city":"Boston","country":"USA","hoods":[],"categories":["Ice Cream & Frozen Yogurt"],"location":{"lat":"42.3703775","long":"-71.1593822"},"rating":{"stars":5.0,"count":1}},{"name":"Alexander Salon and Spa","address":"224 Harvard St, Brookline, MA, 02446, USA","display_address":["224 Harvard St","Brookline, MA 02446"],"phone":"6177341244","image_url":"http://s3-media1.fl.yelpcdn.com/bphoto/M5FLanPpS-I83cM5BE8xtQ/ms.jpg","yelp_id":"alexander-salon-and-spa-brookline","city":"Boston","country":"USA","hoods":["Coolidge Corner"],"categories":["Hair Salons"],"location":{"lat":"42.3405151","long":"-71.1209553"},"rating":{"stars":4.5,"count":30}},{"name":"Kay Jewelers","address":"100 Cambridgeside Pl, Cambridge, MA, 02138, USA","display_address":["100 Cambridgeside Pl","Cambridge, MA 02138"],"phone":"6175770374","image_url":null,"yelp_id":"kay-jewelers-cambridge","city":"Boston","country":"USA","hoods":["East Cambridge"],"categories":["Jewelry"],"location":{"lat":"42.3681484","long":"-71.0761474"},"rating":{"stars":1.5,"count":17}},{"name":"SEE","address":"125 Newbury St, Clarendon St & Dartmouth St, Boston, MA, 02116, USA","display_address":["125 Newbury St","Boston, MA 02116"],"phone":"6172360105","image_url":"http://s3-media2.fl.yelpcdn.com/bphoto/KGyfdgU--Pok3KVjbO3ufw/ms.jpg","yelp_id":"see-eyewear-boston","city":"Boston","country":"USA","hoods":["Back Bay"],"categories":["Optometrists","Medical Supplies","Outdoor Gear"],"location":{"lat":"42.3485434","long":"-71.076578"},"rating":{"stars":4.0,"count":72}},{"name":"Cantina La Mexicana","address":"247 Washington St, Somerville, MA, 02143, USA","display_address":["247 Washington St","Somerville, MA 02143"],"phone":"6177765232","image_url":"http://s3-media3.fl.yelpassets.com/bphoto/DbSRvYhTz826Rw3FhqLlfA/ms.jpg","yelp_id":"cantina-la-mexicana-somerville-2","city":"Boston","country":"USA","hoods":[],"categories":["Mexican"],"location":{"lat":"42.3796086","long":"-71.0941402"},"rating":{"stars":4.0,"count":304}},{"name":"Boston Martial Arts Center","address":", Brighton Ave & Glenville Ave, Allston, MA, 02134, USA","display_address":["Allston, MA 02134"],"phone":"6177895524","image_url":"http://s3-media3.fl.yelpcdn.com/bphoto/gQ5GNhBuLL9oY65zEszq7A/ms.jpg","yelp_id":"boston-martial-arts-center-allston","city":"Boston","country":"USA","hoods":["Allston/Brighton"],"categories":["Martial Arts"],"location":{"lat":"42.3492729","long":"-71.1371969"},"rating":{"stars":5.0,"count":2}},{"name":"Mediterranean Grill","address":"549 Commonwealth Ave, Newton, MA, 02459, USA","display_address":["549 Commonwealth Ave","Newton, MA 02459"],"phone":"6173325444","image_url":"http://s3-media4.fl.yelpassets.com/bphoto/a0Fkb7Ve26b9yh7oawcyPg/ms.jpg","yelp_id":"mediterranean-grill-newton-2","city":"Boston","country":"USA","hoods":[],"categories":["Mediterranean","Middle Eastern"],"location":{"lat":"42.3365553","long":"-71.1890831"},"rating":{"stars":3.5,"count":14}},{"name":"McDonald's South Station Bus Terminal","address":"700 Atlantic Ave, Boston, MA, 02111, USA","display_address":["700 Atlantic Ave","Boston, MA 02111"],"phone":"6172613583","image_url":null,"yelp_id":"mcdonalds-south-station-bus-terminal-boston","city":"Boston","country":"USA","hoods":["South Boston","Waterfront"],"categories":["Fast Food"],"location":{"lat":"42.3521379","long":"-71.0550444"},"rating":{"stars":3.0,"count":10}},{"name":"Qdoba Mexican Grill","address":"393 Huntington Ave, Forsyth St & Opera Pl, Boston, MA, 02115, USA","display_address":["393 Huntington Ave","Boston, MA 02115"],"phone":"6174500910","image_url":"http://s3-media3.fl.yelpassets.com/bphoto/-vkWNLh0E0QPAjrYNc1TxA/ms.jpg","yelp_id":"qdoba-mexican-grill-boston-7","city":"Boston","country":"USA","hoods":[],"categories":["Mexican"],"location":{"lat":"42.3407797","long":"-71.0891704"},"rating":{"stars":3.0,"count":94}},{"name":"Fin's Sushi & Grill","address":"62 Boylston St, Washington St & Tamworth St, Boston, MA, 02116, USA","display_address":["62 Boylston St","Boston, MA 02116"],"phone":"6174234888","image_url":"http://s3-media4.fl.yelpassets.com/bphoto/2FuruB4PfvW5RzavkjlNPg/ms.jpg","yelp_id":"fins-sushi-and-grill-boston-3","city":"Boston","country":"USA","hoods":[],"categories":["Japanese","Sushi Bars"],"location":{"lat":"42.3518771","long":"-71.0642358"},"rating":{"stars":3.0,"count":23}},{"name":"Fitness Together","address":"143 Hampshire St, Cambridge, MA, 02139, USA","display_address":["143 Hampshire St","Cambridge, MA 02139"],"phone":"6175474244","image_url":"http://s3-media2.fl.yelpcdn.com/bphoto/9HTExui77Ljp47wCYCUNjw/ms.jpg","yelp_id":"fitness-together-cambridge","city":"Boston","country":"USA","hoods":["Inman Square"],"categories":["Gyms","Trainers"],"location":{"lat":"42.3710866","long":"-71.0970848"},"rating":{"stars":4.0,"count":7}},{"name":"Sun Sun Company","address":"18 Oxford St, Beach St & Essex St, Boston, MA, 02111, USA","display_address":["18 Oxford St","Boston, MA 02111"],"phone":"6174266494","image_url":null,"yelp_id":"sun-sun-company-boston","city":"Boston","country":"USA","hoods":["Chinatown"],"categories":["Grocery"],"location":{"lat":"42.3525","long":"-71.0593808"},"rating":{"stars":4.5,"count":9}},{"name":"Apollo Travel & Tours","address":"860 Massachusetts Ave, Cambridge, MA, 02139, USA","display_address":["860 Massachusetts Ave","Cambridge, MA 02139"],"phone":"6178764471","image_url":null,"yelp_id":"apollo-travel-and-tours-cambridge","city":"Boston","country":"USA","hoods":["Central Square"],"categories":["Travel Services"],"location":{"lat":"42.3674125","long":"-71.1074518"},"rating":{"stars":2.5,"count":3}},{"name":"Tivo Livery","address":"78 Hawthorne St, Malden, MA, 02148, USA","display_address":["78 Hawthorne St","Malden, MA 02148"],"phone":"6177717616","image_url":"http://s3-media2.fl.yelpcdn.com/bphoto/G3Yai4DtkL4JcxRLfTNu0Q/ms.jpg","yelp_id":"tivo-livery-malden","city":"Boston","country":"USA","hoods":[],"categories":["Limos"],"location":{"lat":"42.4300939","long":"-71.080625"},"rating":{"stars":5.0,"count":1}},{"name":"T-Mobile","address":"118 Newbury Street, Clarendon St & Dartmouth St, Boston, MA, 02116, USA","display_address":["118 Newbury Street","Boston, MA 02116"],"phone":"6174255300","image_url":"http://s3-media1.fl.yelpassets.com/bphoto/qbgqKIYChn_vm1p6WFI74Q/ms.jpg","yelp_id":"t-mobile-boston-9","city":"Boston","country":"USA","hoods":["Back Bay"],"categories":["Mobile Phones"],"location":{"lat":"42.3485434","long":"-71.076578"},"rating":{"stars":4.0,"count":11}},{"name":"Boloco - Congress Street","address":"50 Congress St, Exchange St & Quaker Ln, Boston, MA, 02109, USA","display_address":["50 Congress St","Boston, MA 02109"],"phone":"6173579013","image_url":"http://s3-media2.fl.yelpcdn.com/bphoto/eYsx8fdnXT01Y0uW1KaThA/ms.jpg","yelp_id":"boloco-congress-street-boston-2","city":"Boston","country":"USA","hoods":["Financial District"],"categories":["American (New)"],"location":{"lat":"42.3580929","long":"-71.0565497"},"rating":{"stars":3.5,"count":60}},{"name":"Stop & Shop Pharmacy","address":"301 Centre Street, Jamaica Plain, MA, 02130, USA","display_address":["301 Centre Street","Jamaica Plain, MA 02130"],"phone":"6175242419","image_url":null,"yelp_id":"stop-and-shop-pharmacy-jamaica-plain","city":"Boston","country":"USA","hoods":["Jamaica Plain"],"categories":["Drugstores"],"rating":{"stars":5.0,"count":1}},{"name":"Million Dollar Mary's Smoke Shop","address":"36 Province St, Bosworth St & Ordway Pl, Boston, MA, 02108, USA","display_address":["36 Province St","Boston, MA 02108"],"phone":"6174513864","image_url":null,"yelp_id":"million-dollar-marys-smoke-shop-boston","city":"Boston","country":"USA","hoods":["Downtown"],"categories":["Tobacco Shops"],"location":{"lat":"42.355385","long":"-71.06221"},"rating":{"stars":3.0,"count":3}},{"name":"Drybar Chestnut Hill","address":"210 Boylston St, Ste B111, Chestnut Hill, MA, 02445, USA","display_address":["210 Boylston St","Ste B111","Chestnut Hill, MA 02445"],"phone":"6178266148","image_url":"http://s3-media2.fl.yelpcdn.com/bphoto/kZEYVSyh0Eq93x9-eooLRw/ms.jpg","yelp_id":"drybar-chestnut-hill-chestnut-hill","city":"Boston","country":"USA","hoods":[],"categories":["Blow Dry/Out Services"],"location":{"lat":"42.3305987","long":"-71.1227018"},"rating":{"stars":4.0,"count":13}},{"name":"Boston Breakers","address":"95 North Harvard St, Gardner St & Hefferan St, Boston, MA, 02134, USA","display_address":["95 North Harvard St","Boston, MA 02134"],"phone":"8774392732","image_url":"http://s3-media2.fl.yelpcdn.com/bphoto/5fMOeQEH96Y2JqTfSDRtJQ/ms.jpg","yelp_id":"boston-breakers-boston","city":"Boston","country":"USA","hoods":["Allston/Brighton"],"categories":["Professional Sports Teams"],"location":{"lat":"42.3646946","long":"-71.1269061"},"rating":{"stars":4.5,"count":5}},{"name":"TGI Fridays","address":"750 Providence Hwy, Dedham, MA, 02026, USA","display_address":["750 Providence Hwy","Dedham, MA 02026"],"phone":"7812510650","image_url":"http://s3-media3.fl.yelpassets.com/bphoto/3xfpdXtA_kUk5NuywS4kag/ms.jpg","yelp_id":"tgi-fridays-dedham","city":"Boston","country":"USA","hoods":[],"categories":["American (New)"],"location":{"lat":"42.2392951","long":"-71.1762667"},"rating":{"stars":2.5,"count":56}},{"name":"The Creperie On Newbury","address":"259 Newbury St, Gloucester St & Fairfield St, Boston, MA, 02116, USA","display_address":["259 Newbury St","Boston, MA 02116"],"phone":"6175874222","image_url":"http://s3-media1.fl.yelpcdn.com/bphoto/kAPccZHmp1uFhKnNTqHlzA/ms.jpg","yelp_id":"the-creperie-on-newbury-boston","city":"Boston","country":"USA","hoods":["Back Bay"],"categories":["Creperies"],"location":{"lat":"42.3508649","long":"-71.0827587"},"rating":{"stars":3.5,"count":60}},{"name":"Rosa's Customized Tailoring","address":"129 Galen St., Watertown, MA, 02472, USA","display_address":["129 Galen St.","Watertown, MA 02472"],"phone":"6179262424","image_url":null,"yelp_id":"rosas-customized-tailoring-watertown","city":"Boston","country":"USA","hoods":[],"categories":["Sewing & Alterations"],"location":{"lat":"42.3605119","long":"-71.1857128"},"rating":{"stars":3.0,"count":9}},{"name":"Girl Scouts-Patriots Trail Council","address":"265 Beaver St, Waltham, MA, 02452, USA","display_address":["265 Beaver St","Waltham, MA 02452"],"phone":"8662688652","image_url":null,"yelp_id":"girl-scouts-patriots-trail-council-waltham","city":"Boston","country":"USA","hoods":[],"categories":["Community Service/Non-Profit"],"location":{"lat":"42.3856518","long":"-71.2133467"},"rating":{"stars":4.5,"count":3}},{"name":"Color Me Up Salon","address":"608 Providence Hwy, Dedham, MA, 02026, USA","display_address":["608 Providence Hwy","Dedham, MA 02026"],"phone":"7814611696","image_url":"http://s3-media3.fl.yelpassets.com/bphoto/f47pJe_NNgpTBvos0WgMBQ/ms.jpg","yelp_id":"color-me-up-salon-dedham","city":"Boston","country":"USA","hoods":[],"categories":["Cosmetics & Beauty Supply","Hair Salons"],"location":{"lat":"42.2435382","long":"-71.1743749"},"rating":{"stars":4.5,"count":17}},{"name":"Lit Boutique","address":"236 Hanover St, Richmond St & Board Aly, Boston, MA, 02113, USA","display_address":["236 Hanover St","Boston, MA 02113"],"phone":null,"image_url":"http://s3-media2.fl.yelpassets.com/bphoto/t6j7hzk9UggRUV86Jaqm2w/ms.jpg","yelp_id":"lit-boutique-boston","city":"Boston","country":"USA","hoods":["North End"],"categories":["Women's Clothing"],"location":{"lat":"42.36306","long":"-71.0548019"},"rating":{"stars":4.0,"count":34}},{"name":"Neptune Oyster","address":"63 Salem St, Hull St & Stillman St, Boston, MA, 02113, USA","display_address":["63 Salem St","Boston, MA 02113"],"phone":"6177423474","image_url":"http://s3-media2.fl.yelpassets.com/bphoto/bY92UHeO3QdZk-GgKzO7nQ/ms.jpg","yelp_id":"neptune-oyster-boston","city":"Boston","country":"USA","hoods":["North End"],"categories":["Seafood"],"location":{"lat":"42.3638635","long":"-71.0566203"},"rating":{"stars":4.5,"count":2265}},{"name":"Baked by Trizmo","address":"460 Harrison Ave, Thayer St & Laconia St, Boston, MA, 02118, USA","display_address":["460 Harrison Ave","Boston, MA 02118"],"phone":null,"image_url":"http://s3-media2.fl.yelpcdn.com/bphoto/Rt-ReJJ82P5QFvEpmBU2cQ/ms.jpg","yelp_id":"baked-by-trizmo-boston","city":"Boston","country":"USA","hoods":["South End"],"categories":["Desserts","Farmers Market"],"location":{"lat":"42.3377967","long":"-71.0705763"},"rating":{"stars":4.5,"count":3}},{"name":"City Convenience","address":"700 Albany St, Boston, MA, 02228, USA","display_address":["700 Albany St","Boston, MA 02228"],"phone":"6176385695","image_url":null,"yelp_id":"city-convenience-boston-4","city":"Boston","country":"USA","hoods":["South End"],"categories":["Convenience Stores"],"location":{"lat":"42.335454","long":"-71.070179"},"rating":{"stars":2.5,"count":9}},{"name":"Illusions","address":"224 Harvard Street, Brookline, MA, 02446, USA","display_address":["224 Harvard Street","Brookline, MA 02446"],"phone":"6177341244","image_url":null,"yelp_id":"illusions-brookline","city":"Boston","country":"USA","hoods":["Coolidge Corner"],"categories":["Hair Salons"],"location":{"lat":"42.3405151","long":"-71.1209553"},"rating":{"stars":4.0,"count":2}},{"name":"Total Skin Care","address":"1028 Commonwealth Ave, Boston, MA, 02215, USA","display_address":["1028 Commonwealth Ave","Boston, MA 02215"],"phone":"6175667280","image_url":"http://s3-media2.fl.yelpcdn.com/bphoto/KZLMIrJGiE-EIYD9ykGvFQ/ms.jpg","yelp_id":"total-skin-care-boston","city":"Boston","country":"USA","hoods":["Allston/Brighton"],"categories":["Hair Removal","Skin Care"],"location":{"lat":"42.3515958","long":"-71.1220192"},"rating":{"stars":4.5,"count":107}},{"name":"Tango Seaport","address":"200 Seaport Blvd., Boston, MA, 02210, USA","display_address":["200 Seaport Blvd.","Boston, MA 02210"],"phone":"8572771191","image_url":null,"yelp_id":"tango-seaport-boston","city":"Boston","country":"USA","hoods":["South Boston","Waterfront"],"categories":["Accessories"],"location":{"lat":"42.349998","long":"-71.0410098"},"rating":{"stars":5.0,"count":2}},{"name":"Children's Hospital Boston Blood Donor Center","address":"300 Longwood Ave., Blackfan St & Huntington Ave, Boston, MA, 02115, USA","display_address":["300 Longwood Ave.","Boston, MA 02115"],"phone":"6173556677","image_url":"http://s3-media3.fl.yelpcdn.com/bphoto/XD092iaUIY-jO7ErwQaguQ/ms.jpg","yelp_id":"childrens-hospital-boston-blood-donor-center-boston","city":"Boston","country":"USA","hoods":[],"categories":["Hospitals"],"location":{"lat":"42.3406697","long":"-71.0871096"},"rating":{"stars":5.0,"count":3}},{"name":"Pandora Jewelry","address":"100 CambridgeSide Place, Cambridge, MA, 02141, USA","display_address":["100 CambridgeSide Place","Cambridge, MA 02141"],"phone":"6179450963","image_url":"http://s3-media1.fl.yelpassets.com/bphoto/XsgVe8GPtrAbzpDt2f2NFw/ms.jpg","yelp_id":"pandora-jewelry-cambridge","city":"Boston","country":"USA","hoods":["East Cambridge"],"categories":["Jewelry"],"location":{"lat":"42.3681263","long":"-71.076239"},"rating":{"stars":2.0,"count":4}},{"name":"Bodily Kneads","address":"3 Linden St, Brookline, MA, 02445, USA","display_address":["3 Linden St","Brookline, MA 02445"],"phone":"6172324815","image_url":"http://s3-media4.fl.yelpcdn.com/bphoto/ifkT_5cShGg5MNawGAzVxA/ms.jpg","yelp_id":"bodily-kneads-brookline","city":"Boston","country":"USA","hoods":["Brookline Village"],"categories":["Massage"],"location":{"lat":"42.3347685","long":"-71.1189351"},"rating":{"stars":5.0,"count":2}},{"name":"SeRenaissance Boutique","address":"163 Hampshire St, Cambridge, MA, 02139, USA","display_address":["163 Hampshire St","Cambridge, MA 02139"],"phone":"6173088502","image_url":"http://s3-media1.fl.yelpcdn.com/bphoto/dBhRGy_htwR0TkvxcalT4g/ms.jpg","yelp_id":"serenaissance-boutique-cambridge","city":"Boston","country":"USA","hoods":["Inman Square"],"categories":["Massage Therapy"],"location":{"lat":"42.3717595","long":"-71.0984247"},"rating":{"stars":3.0,"count":13}},{"name":"bosTAN","address":"125 Charles St, Revere St & Pinckney St, Boston, MA, 02114, USA","display_address":["125 Charles St","Boston, MA 02114"],"phone":"6173910494","image_url":"http://s3-media1.fl.yelpcdn.com/bphoto/5Xetox4iaUMg6hV3MeuaZw/ms.jpg","yelp_id":"bostan-boston-2","city":"Boston","country":"USA","hoods":["Beacon Hill"],"categories":["Tanning"],"location":{"lat":"42.3588381","long":"-71.0687039"},"rating":{"stars":4.0,"count":21}},{"name":"Soul Fire BBQ","address":"737 Huntington Ave, Fenwood Rd & Francis St, Boston, MA, 02115, USA","display_address":["737 Huntington Ave","Boston, MA 02115"],"phone":"6172328000","image_url":"http://s3-media3.fl.yelpassets.com/bphoto/pn_hDSujaKH49Fk7D_rlnw/ms.jpg","yelp_id":"soul-fire-bbq-boston","city":"Boston","country":"USA","hoods":[],"categories":["Barbeque"],"location":{"lat":"42.3353227","long":"-71.1066552"},"rating":{"stars":3.5,"count":58}},{"name":"Super Flash T Shirts","address":"1731 Centre St, Esther Rd & Manthorne Rd, West Roxbury, MA, 02132, USA","display_address":["1731 Centre St","West Roxbury, MA 02132"],"phone":"6173239374","image_url":"http://s3-media2.fl.yelpcdn.com/bphoto/ONfsRXATQPi9X0ZkyiQIQw/ms.jpg","yelp_id":"super-flash-t-shirts-west-roxbury","city":"Boston","country":"USA","hoods":["West Roxbury","West Roxbury Center"],"categories":["Screen Printing/T-Shirt Printing"],"location":{"lat":"42.291617","long":"-71.153254"},"rating":{"stars":4.0,"count":1}},{"name":"Mama & Me","address":"Jamaica Plain Brewery Complex, 284 Amory St, 1st Fl, Jamaica Plain, MA, 02130, USA","display_address":["Jamaica Plain Brewery Complex","284 Amory St, 1st Fl","Jamaica Plain, MA 02130"],"phone":"6174773432","image_url":"http://s3-media2.fl.yelpcdn.com/bphoto/Wo7xlF6WoTblb2jGd80KWA/ms.jpg","yelp_id":"mama-and-me-jamaica-plain","city":"Boston","country":"USA","hoods":["Jamaica Plain"],"categories":["Kids Activities","Lactation Services","Child Care & Day Care"],"location":{"lat":"42.3097365","long":"-71.1151431"},"rating":{"stars":4.0,"count":18}},{"name":"The Children's Book Shop","address":"237 Washington St, Brookline, MA, 02445, USA","display_address":["237 Washington St","Brookline, MA 02445"],"phone":"6177347323","image_url":"http://s3-media2.fl.yelpassets.com/bphoto/J1yTlIP2sNO5E0T9mAv1Og/ms.jpg","yelp_id":"the-childrens-book-shop-brookline","city":"Boston","country":"USA","hoods":["Brookline Village"],"categories":["Bookstores"],"location":{"lat":"42.3327318","long":"-71.1185429"},"rating":{"stars":4.5,"count":12}},{"name":"Stadium Sports Bar and Grill","address":"1495 Hancock St, Quincy, MA, 02169, USA","display_address":["1495 Hancock St","Quincy, MA 02169"],"phone":"6173280076","image_url":"http://s3-media2.fl.yelpcdn.com/bphoto/7XfkDNepCc9Az1KxDmRkcw/ms.jpg","yelp_id":"stadium-sports-bar-and-grill-quincy","city":"Boston","country":"USA","hoods":[],"categories":["Sports Bars"],"location":{"lat":"42.248084","long":"-71.002053"},"rating":{"stars":2.5,"count":82}},{"name":"Venus Cosmetics","address":"32 Prospect St, Cambridge, MA, 02139, USA","display_address":["32 Prospect St","Cambridge, MA 02139"],"phone":"6174920870","image_url":"http://s3-media3.fl.yelpassets.com/bphoto/nKdbQS1HzaJcz_8EcR2WaA/ms.jpg","yelp_id":"venus-cosmetics-cambridge","city":"Boston","country":"USA","hoods":["Central Square"],"categories":["Cosmetics & Beauty Supply"],"location":{"lat":"42.3659292","long":"-71.1033016"},"rating":{"stars":3.5,"count":26}},{"name":"London Taxi of Norwood,inc","address":"661 Washington St, Norwood, MA, 02062, USA","display_address":["661 Washington St","Norwood, MA 02062"],"phone":"7814400007","image_url":"http://s3-media1.fl.yelpcdn.com/bphoto/5O6GVTvkqJM3modwNGRmMQ/ms.jpg","yelp_id":"london-taxi-of-norwood-inc-norwood","city":"Boston","country":"USA","hoods":[],"categories":["Taxis"],"location":{"lat":"42.1933208","long":"-71.2015147"},"rating":{"stars":5.0,"count":2}},{"name":"The Green T Coffee Shop","address":"754 Huntington Ave, Fenwood Rd & Wait St, Boston, MA, 02115, USA","display_address":["754 Huntington Ave","Boston, MA 02115"],"phone":"6174878409","image_url":"http://s3-media2.fl.yelpcdn.com/bphoto/5qge11V09N1obtT4moB5ZA/ms.jpg","yelp_id":"the-green-t-coffee-shop-boston","city":"Boston","country":"USA","hoods":[],"categories":["Coffee & Tea"],"location":{"lat":"42.332386","long":"-71.106621"},"rating":{"stars":4.0,"count":68}},{"name":"Beacon Inn","address":"1750 Beacon St, Brookline, MA, 02446, USA","display_address":["1750 Beacon St","Brookline, MA 02446"],"phone":"6175660088","image_url":"http://s3-media2.fl.yelpcdn.com/bphoto/3cLImzcSYieE1fte2YQLLA/ms.jpg","yelp_id":"beacon-inn-brookline-2","city":"Boston","country":"USA","hoods":[],"categories":["Hotels","Bed & Breakfast","Guest Houses"],"location":{"lat":"42.3381916","long":"-71.1413886"},"rating":{"stars":2.5,"count":13}},{"name":"Mr. B's Italian Restaurant","address":"142 Cross St, Somerville, MA, 02145, USA","display_address":["142 Cross St","Somerville, MA 02145"],"phone":"6177180777","image_url":"http://s3-media4.fl.yelpassets.com/bphoto/Kjseea0quEl2HuHbToFIqA/ms.jpg","yelp_id":"mr-bs-italian-restaurant-somerville","city":"Boston","country":"USA","hoods":[],"categories":["Pizza"],"rating":{"stars":1.5,"count":55}},{"name":"Lazybones","address":"230 Somerville Ave, Boston, MA, 02215, USA","display_address":["230 Somerville Ave","Boston, MA 02215"],"phone":"8772152105","image_url":"http://s3-media4.fl.yelpcdn.com/bphoto/vXYEYIgG5nyClPgpRJof5w/ms.jpg","yelp_id":"lazybones-boston-2","city":"Boston","country":"USA","hoods":[],"categories":["Dry Cleaning & Laundry"],"location":{"lat":"42.37807","long":"-71.092168"},"rating":{"stars":3.5,"count":17}},{"name":"Chinese Spaghetti Factory","address":"83 Newmarket Sq, Roxbury, MA, 02118, USA","display_address":["83 Newmarket Sq","Roxbury, MA 02118"],"phone":"6174457714","image_url":"http://s3-media2.fl.yelpassets.com/bphoto/TOtlzP9gQGY-XmcLDmQbQQ/ms.jpg","yelp_id":"chinese-spaghetti-factory-roxbury","city":"Boston","country":"USA","hoods":[],"categories":["Chinese"],"location":{"lat":"42.3292741","long":"-71.0669951"},"rating":{"stars":5.0,"count":1}},{"name":"Pon Thai Bistro","address":"213 Washington St, Brookline, MA, 02445, USA","display_address":["213 Washington St","Brookline, MA 02445"],"phone":"6176083593","image_url":"http://s3-media3.fl.yelpassets.com/bphoto/EL6xjMJv0lQvBqgCSzaT1Q/ms.jpg","yelp_id":"pon-thai-bistro-brookline","city":"Boston","country":"USA","hoods":["Brookline Village"],"categories":["Thai"],"rating":{"stars":4.0,"count":33}},{"name":"Louie's Hair Cuts","address":"712 Commonwealth Ave, Boston, MA, 02215, USA","display_address":["712 Commonwealth Ave","Boston, MA 02215"],"phone":"6172621980","image_url":"http://s3-media2.fl.yelpcdn.com/bphoto/7r6jNEnsYNUpaesGHvDedA/ms.jpg","yelp_id":"louies-hair-cuts-boston-3","city":"Boston","country":"USA","hoods":[],"categories":["Hair Stylists"],"location":{"lat":"42.3495238","long":"-71.1055856"},"rating":{"stars":4.5,"count":48}},{"name":"Nicole's Pizza","address":"639 Tremont St, Brookline St & Canton St, Boston, MA, 02118, USA","display_address":["639 Tremont St","Boston, MA 02118"],"phone":"6172660223","image_url":"http://s3-media2.fl.yelpassets.com/bphoto/CBo9Rlc6s3lOQCp9FCtLog/ms.jpg","yelp_id":"nicoles-pizza-boston","city":"Boston","country":"USA","hoods":["South End"],"categories":["Pizza"],"location":{"lat":"42.3380886","long":"-71.0694535"},"rating":{"stars":3.0,"count":47}},{"name":"American Red Cross of Massachusetts Bay Food Pantry","address":"1033 Massachusetts Avenue, Magazine St & Napa St, Boston, MA, 02118, USA","display_address":["1033 Massachusetts Avenue","Boston, MA 02118"],"phone":null,"image_url":"http://s3-media3.fl.yelpcdn.com/bphoto/afBt9R9PzlD7vKV9i31Hlg/ms.jpg","yelp_id":"american-red-cross-of-massachusetts-bay-food-pantry-boston-2","city":"Boston","country":"USA","hoods":[],"categories":["Food","Community Service/Non-Profit"],"location":{"lat":"42.3267195","long":"-71.0677326"},"rating":{"stars":5.0,"count":4}},{"name":"Lucy's League","address":"1 Faneuil Hall Sq, Boston, MA, 02109, USA","display_address":["1 Faneuil Hall Sq","Boston, MA 02109"],"phone":"6172483986","image_url":"http://s3-media2.fl.yelpassets.com/bphoto/h64NgBLNnR6oFV7EPgxm2g/ms.jpg","yelp_id":"lucys-league-boston","city":"Boston","country":"USA","hoods":[],"categories":["Women's Clothing"],"location":{"lat":"42.3601334","long":"-71.055555"},"rating":{"stars":4.0,"count":4}},{"name":"Ash Tree Calligraphy","address":"109 Peterborough St, Kilmarnock St & Park Dr, Boston, MA, 02215, USA","display_address":["109 Peterborough St","Boston, MA 02215"],"phone":"7817246861","image_url":"http://s3-media1.fl.yelpcdn.com/bphoto/742OA4AvIm2kQKSYQrLYrg/ms.jpg","yelp_id":"ash-tree-calligraphy-boston-2","city":"Boston","country":"USA","hoods":["Fenway"],"categories":["Printing Services"],"location":{"lat":"42.3431648","long":"-71.1024892"},"rating":{"stars":5.0,"count":1}},{"name":"Bijan Cleaners","address":"567 Columbus Ave, Massachusetts Ave & Springfield St, Boston, MA, 02118, USA","display_address":["567 Columbus Ave","Boston, MA 02118"],"phone":"6172625969","image_url":"http://s3-media4.fl.yelpcdn.com/bphoto/c0I1hsh51heI1olNziyzfQ/ms.jpg","yelp_id":"bijan-cleaners-boston","city":"Boston","country":"USA","hoods":["South End"],"categories":["Dry Cleaning & Laundry"],"location":{"lat":"42.3410835","long":"-71.0810917"},"rating":{"stars":4.0,"count":19}},{"name":"Coolidge Corner Wellness Studio","address":"318 Harvard St, Ste 35, Brookline, MA, 02446, USA","display_address":["318 Harvard St","Ste 35","Brookline, MA 02446"],"phone":"6179751969","image_url":"http://s3-media2.fl.yelpcdn.com/bphoto/SWPspg1-8y3Am68zftEdMA/ms.jpg","yelp_id":"coolidge-corner-wellness-studio-brookline","city":"Boston","country":"USA","hoods":["Coolidge Corner"],"categories":["Yoga","Massage","Physical Therapy"],"location":{"lat":"42.3432045","long":"-71.1234802"},"rating":{"stars":4.5,"count":2}},{"name":"C'est Bon Market And Liquors","address":"1436 Mass Ave, Cambridge, MA, 02138, USA","display_address":["1436 Mass Ave","Cambridge, MA 02138"],"phone":"6178686580","image_url":null,"yelp_id":"cest-bon-market-and-liquors-cambridge","city":"Boston","country":"USA","hoods":["Harvard Square"],"categories":["Beer, Wine & Spirits"],"location":{"lat":"42.3988166","long":"-71.131718"},"rating":{"stars":4.0,"count":1}},{"name":"Jamspot","address":"111 South St, Somerville, MA, 02143, USA","display_address":["111 South St","Somerville, MA 02143"],"phone":"6176667529","image_url":"http://s3-media1.fl.yelpcdn.com/bphoto/Z0rs_kS4VwMfnuH0Zflc7w/ms.jpg","yelp_id":"jamspot-somerville","city":"Boston","country":"USA","hoods":[],"categories":["Performing Arts","Recording & Rehearsal Studios"],"location":{"lat":"42.375101","long":"-71.0917026"},"rating":{"stars":3.0,"count":9}},{"name":"Boston Logan International Airport","address":"1 Harborside Dr, Ste 200S, Boston, MA, 02128, USA","display_address":["1 Harborside Dr","Ste 200S","Boston, MA 02128"],"phone":"8002356426","image_url":"http://s3-media3.fl.yelpcdn.com/bphoto/9-iNVgDw_gNh11d8-fZBYw/ms.jpg","yelp_id":"boston-logan-international-airport-boston","city":"Boston","country":"USA","hoods":["East Boston"],"categories":["Airports"],"location":{"lat":"42.3631789","long":"-71.0243739"},"rating":{"stars":3.0,"count":826}},{"name":"Auto Service & Tire, Inc","address":"1590 Blue Hill Ave, Fairway St & Babson St, Mattapan, MA, 02126, USA","display_address":["1590 Blue Hill Ave","Mattapan, MA 02126"],"phone":"6172987400","image_url":"http://s3-media1.fl.yelpcdn.com/bphoto/SEsyajQZQT6OozTv6HqaDA/ms.jpg","yelp_id":"auto-service-and-tire-inc-mattapan-2","city":"Boston","country":"USA","hoods":["Mattapan","Mattapan Square"],"categories":["Auto Repair","Oil Change Stations","Tires"],"location":{"lat":"42.2737485","long":"-71.0919807"},"rating":{"stars":4.0,"count":5}},{"name":"Fresco Flowers","address":"282 Cambridge St, Grove St & Cambridge Street Ave, Beacon Hill, MA, 02114, USA","display_address":["282 Cambridge St","Beacon Hill, MA 02114"],"phone":"6172280500","image_url":"http://s3-media4.fl.yelpassets.com/bphoto/_ukDSagLM_Bxs_6Ob5y-lw/ms.jpg","yelp_id":"fresco-flowers-beacon-hill","city":"Boston","country":"USA","hoods":["Beacon Hill"],"categories":["Florists"],"rating":{"stars":4.0,"count":22}},{"name":"Lucky Shamrock","address":"263 Beale St, Quincy, MA, 02170, USA","display_address":["263 Beale St","Quincy, MA 02170"],"phone":"6177731666","image_url":"http://s3-media4.fl.yelpcdn.com/bphoto/fnT_eNtDC1TipnL4tvIfJw/ms.jpg","yelp_id":"lucky-shamrock-quincy","city":"Boston","country":"USA","hoods":[],"categories":["Convenience Stores","Grocery","Ethnic Food"],"location":{"lat":"42.261581","long":"-71.0255523"},"rating":{"stars":4.0,"count":8}},{"name":"S J's Heads Up","address":"39 Harvard St, Brookline, MA, 02445, USA","display_address":["39 Harvard St","Brookline, MA 02445"],"phone":"6177313377","image_url":null,"yelp_id":"s-js-heads-up-brookline","city":"Boston","country":"USA","hoods":["Brookline Village"],"categories":["Hair Salons"],"location":{"lat":"42.3346031","long":"-71.1189866"},"rating":{"stars":2.0,"count":1}},{"name":"Harrington House Bed and Breakfast","address":"2 Ter Ave, Winthrop, MA, 02152, USA","display_address":["2 Ter Ave","Winthrop, MA 02152"],"phone":"6172079303","image_url":"http://s3-media2.fl.yelpcdn.com/bphoto/X1dees4bqGYfGJGGhHPrXA/ms.jpg","yelp_id":"harrington-house-bed-and-breakfast-winthrop","city":"Boston","country":"USA","hoods":["Winthrop"],"categories":["Bed & Breakfast"],"location":{"lat":"42.3829964","long":"-70.9731095"},"rating":{"stars":5.0,"count":1}},{"name":"Market In the Square","address":"60 Church St, Cambridge, MA, 02138, USA","display_address":["60 Church St","Cambridge, MA 02138"],"phone":"6174412000","image_url":"http://s3-media2.fl.yelpassets.com/bphoto/MJg0vF_8aYNxg9dFYzE6GA/ms.jpg","yelp_id":"market-in-the-square-cambridge","city":"Boston","country":"USA","hoods":["Harvard Square"],"categories":["Bakeries","Grocery","Delis"],"location":{"lat":"42.374111","long":"-71.1210619"},"rating":{"stars":3.0,"count":107}},{"name":"Cleveland Circle","address":"Beacon & Sutherland, Brighton, MA, 02135, USA","display_address":["Beacon & Sutherland","Brighton, MA 02135"],"phone":null,"image_url":"http://s3-media3.fl.yelpassets.com/bphoto/H2iT86LJr0aDi6DP8Z1kzQ/ms.jpg","yelp_id":"cleveland-circle-brighton","city":"Boston","country":"USA","hoods":[],"categories":["Shopping Centers"],"rating":{"stars":2.0,"count":6}},{"name":"The Closet","address":"175 Newbury St, Dartmouth St & Exeter St, Boston, MA, 02116, USA","display_address":["175 Newbury St","Boston, MA 02116"],"phone":"6175361919","image_url":"http://s3-media3.fl.yelpassets.com/bphoto/buivMcs7rKkRbI8_BrAsiA/ms.jpg","yelp_id":"the-closet-boston","city":"Boston","country":"USA","hoods":["Back Bay"],"categories":["Used, Vintage & Consignment","Women's Clothing"],"location":{"lat":"42.350693","long":"-71.0800771"},"rating":{"stars":3.5,"count":66}},{"name":"Ziti's Italian Express","address":"140 Tremont St, Boston, MA, 02111, USA","display_address":["140 Tremont St","Boston, MA 02111"],"phone":"8579911246","image_url":"http://s3-media3.fl.yelpassets.com/bphoto/UOCG4YI6S8BFnZgq4FpieA/ms.jpg","yelp_id":"zitis-italian-express-boston","city":"Boston","country":"USA","hoods":["Downtown"],"categories":["Burgers","Italian","Pizza"],"rating":{"stars":3.5,"count":7}},{"name":"Lululemon Athletica","address":"55 Boylston St, Ste 5530, Chestnut Hill, MA, 02467, USA","display_address":["55 Boylston St","Ste 5530","Chestnut Hill, MA 02467"],"phone":"6177136316","image_url":"http://s3-media3.fl.yelpassets.com/bphoto/JWbOjHlvtS4pVP7Ub_L-rg/ms.jpg","yelp_id":"lululemon-athletica-chestnut-hill","city":"Boston","country":"USA","hoods":[],"categories":["Sports Wear"],"location":{"lat":"42.3225388","long":"-71.1705206"},"rating":{"stars":3.5,"count":6}},{"name":"Watson Printing Co","address":"118 Cedar St, Wellesley, MA, 02481, USA","display_address":["118 Cedar St","Wellesley, MA 02481"],"phone":"7812371336","image_url":"http://s3-media2.fl.yelpcdn.com/bphoto/WkL_LEfmzAQCI05G0z9vtg/ms.jpg","yelp_id":"watson-printing-co-wellesley","city":"Boston","country":"USA","hoods":[],"categories":["Printing Services"],"location":{"lat":"42.3162353","long":"-71.2467319"},"rating":{"stars":5.0,"count":1}},{"name":"Apple Store","address":"950 Providence Hwy, Dedham, MA, 02026, USA","display_address":["950 Providence Hwy","Dedham, MA 02026"],"phone":"7814713800","image_url":"http://s3-media2.fl.yelpassets.com/bphoto/W96OBCl398SiyAyH4ihlZA/ms.jpg","yelp_id":"apple-store-dedham","city":"Boston","country":"USA","hoods":[],"categories":["Computers","Mobile Phones"],"rating":{"stars":3.5,"count":41}},{"name":"Reality Boston","address":"85 W Newton St, Newland St & Thorn St, Boston, MA, 02118, USA","display_address":["85 W Newton St","Boston, MA 02118"],"phone":"6179421802","image_url":"http://s3-media1.fl.yelpcdn.com/bphoto/ttd6fZ3A7-NroX9woynacQ/ms.jpg","yelp_id":"reality-boston-boston","city":"Boston","country":"USA","hoods":["South End"],"categories":["Churches"],"location":{"lat":"42.2640453","long":"-71.1034284"},"rating":{"stars":5.0,"count":1}},{"name":"Beat Hotel","address":"13 Brattle St, Cambridge, MA, 02138, USA","display_address":["13 Brattle St","Cambridge, MA 02138"],"phone":"6174990001","image_url":"http://s3-media2.fl.yelpassets.com/bphoto/LXFtoJI5HCnPqJ9jP4qAdg/ms.jpg","yelp_id":"beat-hotel-cambridge-3","city":"Boston","country":"USA","hoods":["Harvard Square"],"categories":["American (New)","Breakfast & Brunch"],"rating":{"stars":3.5,"count":345}},{"name":"The Cottage","address":"47 Boylston St, Chestnut Hill, MA, 02467, USA","display_address":["47 Boylston St","Chestnut Hill, MA 02467"],"phone":"6179165413","image_url":"http://s3-media2.fl.yelpcdn.com/bphoto/NAc5meU9XR3VDE75b86M8Q/ms.jpg","yelp_id":"the-cottage-chestnut-hill","city":"Boston","country":"USA","hoods":[],"categories":["American (New)"],"location":{"lat":"42.3226321","long":"-71.1691349"},"rating":{"stars":3.0,"count":118}},{"name":"smart Center - Boston","address":"259 McGrath Hwy, Boston, MA, 02145, USA","display_address":["259 McGrath Hwy","Boston, MA 02145"],"phone":"8662015128","image_url":"http://s3-media3.fl.yelpcdn.com/bphoto/mW0kacABeVLpy02vvs4u3g/ms.jpg","yelp_id":"smart-center-boston-boston","city":"Boston","country":"USA","hoods":[],"categories":["Auto Repair","Car Dealers"],"location":{"lat":"42.3784774","long":"-71.0885717"},"rating":{"stars":3.5,"count":13}},{"name":"Massage Therapies","address":"21 Franklin St, Quincy, MA, 02169, USA","display_address":["21 Franklin St","Quincy, MA 02169"],"phone":"6177805129","image_url":"http://s3-media4.fl.yelpcdn.com/bphoto/Gp46eC2K3g0sGfxadETMsQ/ms.jpg","yelp_id":"massage-therapies-quincy","city":"Boston","country":"USA","hoods":[],"categories":["Massage"],"location":{"lat":"42.243146","long":"-71.003897"},"rating":{"stars":5.0,"count":2}},{"name":"Ethan Allen","address":"840 Willard Street, Quincy, MA, 02169, USA","display_address":["840 Willard Street","Quincy, MA 02169"],"phone":"6174713331","image_url":null,"yelp_id":"ethan-allen-quincy","city":"Boston","country":"USA","hoods":[],"categories":["Furniture Stores","Home Decor"],"rating":{"stars":3.0,"count":2}},{"name":"Lauren E. Hanley, MD","address":"Massachusetts General Hospital, 55 Fruit St, Boston, MA, 02114, USA","display_address":["Massachusetts General Hospital","55 Fruit St","Boston, MA 02114"],"phone":"6177242229","image_url":null,"yelp_id":"lauren-e-hanley-md-boston","city":"Boston","country":"USA","hoods":[],"categories":["Obstetricians & Gynecologists"],"location":{"lat":"42.3632571","long":"-71.0685829"},"rating":{"stars":5.0,"count":1}},{"name":"The Dogwood Cafe","address":"3712 Washington St, Tower St, Jamaica Plain, MA, 02130, USA","display_address":["3712 Washington St","Jamaica Plain, MA 02130"],"phone":"6175227997","image_url":"http://s3-media1.fl.yelpcdn.com/bphoto/GJNIdhq1WFRQnAWsixh69A/ms.jpg","yelp_id":"the-dogwood-cafe-jamaica-plain","city":"Boston","country":"USA","hoods":["Jamaica Plain"],"categories":["American (New)","Breakfast & Brunch","Pizza"],"location":{"lat":"42.2990314","long":"-71.1117975"},"rating":{"stars":3.5,"count":275}},{"name":"Oil Connection","address":"2 Shawsheen Road, Boston, MA, 02128, USA","display_address":["2 Shawsheen Road","Boston, MA 02128"],"phone":"6175611162","image_url":null,"yelp_id":"oil-connection-boston","city":"Boston","country":"USA","hoods":["East Boston"],"categories":["Gas & Service Stations"],"location":{"lat":"42.3845171","long":"-71.0007423"},"rating":{"stars":3.0,"count":2}},{"name":"Pastelaria Broadway","address":"192 Broadway, Somerville, MA, 02145, USA","display_address":["192 Broadway","Somerville, MA 02145"],"phone":"6177764303","image_url":"http://s3-media1.fl.yelpassets.com/bphoto/ZxP908W_bqi7jjasPci9dg/ms.jpg","yelp_id":"pastelaria-broadway-somerville","city":"Boston","country":"USA","hoods":[],"categories":["Brazilian","Sandwiches"],"location":{"lat":"42.3890312","long":"-71.0873334"},"rating":{"stars":4.5,"count":19}},{"name":"Wolford","address":"100 Huntington Ave, Boston, MA, 02116, USA","display_address":["100 Huntington Ave","Boston, MA 02116"],"phone":"6172365070","image_url":"http://s3-media2.fl.yelpassets.com/bphoto/iNIXA8aXJS3Rq9qjZAI4Aw/ms.jpg","yelp_id":"wolford-boston","city":"Boston","country":"USA","hoods":["Back Bay"],"categories":["Lingerie","Women's Clothing"],"location":{"lat":"42.347334","long":"-71.0788745"},"rating":{"stars":4.5,"count":7}},{"name":"Mandarin House","address":"633 Hyde Park Ave, Ramsdell Ave & Canterbury St, Roslindale, MA, 02131, USA","display_address":["633 Hyde Park Ave","Roslindale, MA 02131"],"phone":"6173273131","image_url":null,"yelp_id":"mandarin-house-roslindale","city":"Boston","country":"USA","hoods":["Roslindale"],"categories":["Chinese"],"location":{"lat":"42.2931129","long":"-71.0954647"},"rating":{"stars":3.5,"count":9}},{"name":"US Post Office USPS","address":"125 Mt Auburn St, Cambridge, MA, 02138, USA","display_address":["125 Mt Auburn St","Cambridge, MA 02138"],"phone":"6178763883","image_url":"http://s3-media1.fl.yelpcdn.com/bphoto/h2wFhWvXYlJi7Rh3iHtHtw/ms.jpg","yelp_id":"us-post-office-usps-cambridge","city":"Boston","country":"USA","hoods":["Harvard Square"],"categories":["Post Offices"],"location":{"lat":"42.373573","long":"-71.1228864"},"rating":{"stars":1.5,"count":5}},{"name":"The Boston Chipyard","address":"Quincy Market, 257 Faneuil Hall, Boston, MA, 02109, USA","display_address":["Quincy Market","257 Faneuil Hall","Boston, MA 02109"],"phone":"6177429537","image_url":"http://s3-media4.fl.yelpcdn.com/bphoto/PojZJRJnehcGwFkIfg0YWg/ms.jpg","yelp_id":"the-boston-chipyard-boston","city":"Boston","country":"USA","hoods":[],"categories":["Bakeries"],"location":{"lat":"42.3600988","long":"-71.0561485"},"rating":{"stars":4.0,"count":74}},{"name":"The Threading Spa","address":"Galleria Mall, 100 Cambridgeside Pl, Cambridge, MA, 02141, USA","display_address":["Galleria Mall","100 Cambridgeside Pl","Cambridge, MA 02141"],"phone":"6172250000","image_url":"http://s3-media3.fl.yelpcdn.com/bphoto/sAxrCxQfij_zheO01l6TJQ/ms.jpg","yelp_id":"the-threading-spa-cambridge","city":"Boston","country":"USA","hoods":["East Cambridge"],"categories":["Hair Removal"],"location":{"lat":"42.3681263","long":"-71.076239"},"rating":{"stars":3.5,"count":24}},{"name":"The Boston Bodyworker","address":"575 Boylston St, Clarendon St & Dartmouth St, Boston, MA, 02116, USA","display_address":["575 Boylston St","Boston, MA 02116"],"phone":"6177787344","image_url":"http://s3-media2.fl.yelpcdn.com/bphoto/IM4GJgOdm1eubbxtvJ-q1Q/ms.jpg","yelp_id":"the-boston-bodyworker-boston-2","city":"Boston","country":"USA","hoods":["Back Bay"],"categories":["Massage","Massage Therapy"],"location":{"lat":"42.3485434","long":"-71.076578"},"rating":{"stars":4.0,"count":100}},{"name":"The Stupendous Mr. Magichead","address":"343 West Broadway St, Sherman Ct & Wrights Ct, Boston, MA, 02127, USA","display_address":["343 West Broadway St","Boston, MA 02127"],"phone":"5084507110","image_url":"http://s3-media4.fl.yelpcdn.com/bphoto/RTtjYvZpLOw1x9FSrGpWxQ/ms.jpg","yelp_id":"the-stupendous-mr-magichead-boston-2","city":"Boston","country":"USA","hoods":["South Boston"],"categories":["Performing Arts","Magicians"],"location":{"lat":"42.3383876","long":"-71.0494256"},"rating":{"stars":5.0,"count":1}},{"name":"Adams Park","address":"Cummins Hwy & Washington St, Roslindale, MA, 02131, USA","display_address":["Cummins Hwy & Washington St","Roslindale, MA 02131"],"phone":null,"image_url":"http://s3-media2.fl.yelpcdn.com/bphoto/hmjq2dkGGZsn4oZ1U8Js2Q/ms.jpg","yelp_id":"adams-park-roslindale","city":"Boston","country":"USA","hoods":["Roslindale","Roslindale Village"],"categories":["Parks"],"location":{"lat":"42.2864434","long":"-71.1281579"},"rating":{"stars":4.0,"count":1}},{"name":"Brookline Chamber of Commerce","address":"251 Harvard St, Ste 1, Brookline, MA, 02446, USA","display_address":["251 Harvard St","Ste 1","Brookline, MA 02446"],"phone":"6177391330","image_url":"http://s3-media2.fl.yelpcdn.com/bphoto/X94KFmJBAfUUOiW8caIkqQ/ms.jpg","yelp_id":"brookline-chamber-of-commerce-brookline","city":"Boston","country":"USA","hoods":["Coolidge Corner"],"categories":["Public Services & Government"],"location":{"lat":"42.3412766","long":"-71.1207427"},"rating":{"stars":5.0,"count":1}},{"name":"Scullers Jazz Club's Green Room","address":"400 Soldier's Field Rd, Allston, MA, 02134, USA","display_address":["400 Soldier's Field Rd","Allston, MA 02134"],"phone":"6175624190","image_url":"http://s3-media1.fl.yelpassets.com/bphoto/9sLwtSjyhfgg47KaLphPsQ/ms.jpg","yelp_id":"scullers-jazz-clubs-green-room-allston","city":"Boston","country":"USA","hoods":["Allston/Brighton"],"categories":["Breakfast & Brunch"],"location":{"lat":"42.3602306","long":"-71.1181203"},"rating":{"stars":2.5,"count":7}},{"name":"Harvard Book and Binding Service","address":"5 JFK St, 3rd Floor, #306, Cambridge, MA, 02138, USA","display_address":["5 JFK St","3rd Floor, #306","Cambridge, MA 02138"],"phone":"6172336756","image_url":null,"yelp_id":"harvard-book-and-binding-service-cambridge","city":"Boston","country":"USA","hoods":["Harvard Square"],"categories":["Bookstores"],"location":{"lat":"42.3732862","long":"-71.1197974"},"rating":{"stars":2.5,"count":2}},{"name":"Boston Public Library-Mattapan Branch","address":"1350 Blue Hill Avenue, Hazelton St & Walk Hill St, Boston, MA, 02126, USA","display_address":["1350 Blue Hill Avenue","Boston, MA 02126"],"phone":"6172989218","image_url":"http://s3-media2.fl.yelpcdn.com/bphoto/s3Vuqujd0XyroL1FIzkVRA/ms.jpg","yelp_id":"boston-public-library-mattapan-branch-boston","city":"Boston","country":"USA","hoods":["Mattapan"],"categories":["Libraries"],"location":{"lat":"42.2823044","long":"-71.0996107"},"rating":{"stars":2.0,"count":2}},{"name":"A Taste of Bostonn","address":", Boston, MA, USA","display_address":["Boston, MA"],"phone":null,"image_url":null,"yelp_id":"a-taste-of-bostonn-boston","city":"Boston","country":"USA","hoods":["Downtown"],"categories":["Food"],"location":{"lat":"42.3584308","long":"-71.0597732"},"rating":{"stars":4.0,"count":1}},{"name":"Bethlehem To Go","address":"136 Harvard Ave, Hefferan St & Glenville Ter, Allston, MA, 02134, USA","display_address":["136 Harvard Ave","Allston, MA 02134"],"phone":"6173373500","image_url":"http://s3-media2.fl.yelpcdn.com/bphoto/IDdBcwEA3CO6FXEqPDH9MQ/ms.jpg","yelp_id":"bethlehem-to-go-allston","city":"Boston","country":"USA","hoods":["Allston/Brighton"],"categories":["Korean"],"location":{"lat":"42.3513213","long":"-71.1309769"},"rating":{"stars":3.5,"count":19}},{"name":"Pellino's Ristorante","address":"2 Prince St, Boston, MA, 02109, USA","display_address":["2 Prince St","Boston, MA 02109"],"phone":"6172277300","image_url":"http://s3-media2.fl.yelpassets.com/bphoto/SbE1l_vPHV73qxMM0ucnOQ/ms.jpg","yelp_id":"pellinos-ristorante-boston","city":"Boston","country":"USA","hoods":["North End"],"categories":["Bars","Italian"],"location":{"lat":"42.36403","long":"-71.053623"},"rating":{"stars":4.0,"count":99}},{"name":"Boston Flower Market","address":"591 Albany St, Canton St & Dedham St, Boston, MA, 02118, USA","display_address":["591 Albany St","Boston, MA 02118"],"phone":"6173577009","image_url":"http://s3-media2.fl.yelpassets.com/bphoto/mBqphLkjmvkZ1V-HVu8ucQ/ms.jpg","yelp_id":"boston-flower-market-boston","city":"Boston","country":"USA","hoods":["South End"],"categories":["Florists"],"location":{"lat":"42.3416543","long":"-71.0724789"},"rating":{"stars":3.0,"count":23}},{"name":"The Revolution Charters & Tours","address":"707 Shirley St, Park Ave & Terrace Ave, Winthrop, MA, 02152, USA","display_address":["707 Shirley St","Winthrop, MA 02152"],"phone":"6178182773","image_url":"http://s3-media3.fl.yelpcdn.com/bphoto/_tCyzu7EV6e5hy5WyJOBnw/ms.jpg","yelp_id":"the-revolution-charters-and-tours-winthrop","city":"Boston","country":"USA","hoods":["Winthrop"],"categories":["Boat Charters","Tours"],"location":{"lat":"42.3673897","long":"-70.970117"},"rating":{"stars":5.0,"count":1}},{"name":"Family Kitchen","address":"198 Bunker Hill St, Elm St & Green St, Charlestown, MA, 02129, USA","display_address":["198 Bunker Hill St","Charlestown, MA 02129"],"phone":"6172420299","image_url":"http://s3-media4.fl.yelpassets.com/bphoto/sy3Jz44_6SgP8yg7tHFzAQ/ms.jpg","yelp_id":"family-kitchen-charlestown","city":"Boston","country":"USA","hoods":["Charlestown"],"categories":["Delis","Sandwiches"],"location":{"lat":"42.3769526","long":"-71.0631719"},"rating":{"stars":4.0,"count":5}},{"name":"St John the Evangelist Church","address":"35 Bowdoin St, New Chardon St & Cambridge St, Boston, MA, 02114, USA","display_address":["35 Bowdoin St","Boston, MA 02114"],"phone":"6172275242","image_url":null,"yelp_id":"st-john-the-evangelist-church-boston","city":"Boston","country":"USA","hoods":["Beacon Hill","Downtown"],"categories":["Churches"],"location":{"lat":"42.3390057","long":"-71.0913587"},"rating":{"stars":3.0,"count":1}},{"name":"Cell Phone Waiting Lot Boston Logan Airport","address":"1 Harborside Dr, East Boston, MA, 02128, USA","display_address":["1 Harborside Dr","East Boston, MA 02128"],"phone":"6175611889","image_url":"http://s3-media3.fl.yelpcdn.com/bphoto/7DqctBeicpx1BAuXiQSU2g/ms.jpg","yelp_id":"cell-phone-waiting-lot-boston-logan-airport-east-boston","city":"Boston","country":"USA","hoods":["East Boston"],"categories":["Public Services & Government"],"location":{"lat":"42.3631789","long":"-71.0243739"},"rating":{"stars":4.5,"count":16}},{"name":"A Briggs Passport & Visa Expeditors","address":"294 Washington St, Ste 407, Spring Ln & School St, Boston, MA, 02108, USA","display_address":["294 Washington St","Ste 407","Boston, MA 02108"],"phone":"6173571840","image_url":null,"yelp_id":"a-briggs-passport-and-visa-expeditors-boston-2","city":"Boston","country":"USA","hoods":["Downtown"],"categories":["Travel Services"],"location":{"lat":"40.3032648","long":"-75.9739012"},"rating":{"stars":4.5,"count":5}},{"name":"Cheryl Ann's","address":"1010 West Roxbury Pkwy, Brookline, MA, 02467, USA","display_address":["1010 West Roxbury Pkwy","Brookline, MA 02467"],"phone":"6174699241","image_url":"http://s3-media3.fl.yelpcdn.com/bphoto/iNDgC4OnIrwHqYP7npPS3A/ms.jpg","yelp_id":"cheryl-anns-brookline","city":"Boston","country":"USA","hoods":[],"categories":["Bakeries","Kosher"],"location":{"lat":"42.3045259","long":"-71.1521711"},"rating":{"stars":4.5,"count":41}},{"name":"X Squared","address":"201 Newbury St, Boston, MA, 02228, USA","display_address":["201 Newbury St","Boston, MA 02228"],"phone":"6174240500","image_url":"http://s3-media4.fl.yelpassets.com/bphoto/jZuE2OZiqBHTy_Gko9KqoQ/ms.jpg","yelp_id":"x-squared-boston","city":"Boston","country":"USA","hoods":["Back Bay"],"categories":["Men's Clothing","Women's Clothing"],"location":{"lat":"42.3504415","long":"-71.0804997"},"rating":{"stars":4.0,"count":2}},{"name":"Grendel's Den Restaurant & Bar","address":"89 Winthrop St, Cambridge, MA, 02138, USA","display_address":["89 Winthrop St","Cambridge, MA 02138"],"phone":"6174911160","image_url":"http://s3-media1.fl.yelpassets.com/bphoto/u7bcLv9F-0ZHNarFbWFI_Q/ms.jpg","yelp_id":"grendels-den-restaurant-and-bar-cambridge","city":"Boston","country":"USA","hoods":["Harvard Square"],"categories":["Bars","American (New)"],"location":{"lat":"42.3724617","long":"-71.1208398"},"rating":{"stars":3.5,"count":682}},{"name":"Sport Clips Haircuts","address":"185 Essex St, Atlantic Ave & Harrison Ave, Boston, MA, 02111, USA","display_address":["185 Essex St","Boston, MA 02111"],"phone":"6177373200","image_url":"http://s3-media2.fl.yelpcdn.com/bphoto/-d2g-unpskTGBrI8HIoBVA/ms.jpg","yelp_id":"sport-clips-haircuts-boston","city":"Boston","country":"USA","hoods":["Leather District","South Boston","Waterfront"],"categories":["Hair Stylists"],"location":{"lat":"42.3494111","long":"-71.0620063"},"rating":{"stars":2.5,"count":4}},{"name":"WholeTone Academy","address":"33 Concord Ave, Cambridge, MA, 02138, USA","display_address":["33 Concord Ave","Cambridge, MA 02138"],"phone":"8159805484","image_url":"http://s3-media3.fl.yelpassets.com/bphoto/L7ZF20FDV-cS7Chw9rt0MA/ms.jpg","yelp_id":"wholetone-academy-cambridge-3","city":"Boston","country":"USA","hoods":[],"categories":["Musical Instruments & Teachers"],"rating":{"stars":5.0,"count":5}},{"name":"Villanueva Ofelia Veluz DMD","address":"339 Hancock Street, Quincy, MA, 02171, USA","display_address":["339 Hancock Street","Quincy, MA 02171"],"phone":"6173284646","image_url":null,"yelp_id":"villanueva-ofelia-veluz-dmd-quincy","city":"Boston","country":"USA","hoods":[],"categories":["Trainers","General Dentistry"],"location":{"lat":"42.2749443","long":"-71.027675"},"rating":{"stars":1.0,"count":1}},{"name":"4A Coffee","address":"419 Harvard St, Brookline, MA, 02446, USA","display_address":["419 Harvard St","Brookline, MA 02446"],"phone":"6177384444","image_url":"http://s3-media2.fl.yelpcdn.com/bphoto/WnhHYJnpfQyOkAQMuppBJA/ms.jpg","yelp_id":"4a-coffee-brookline","city":"Boston","country":"USA","hoods":[],"categories":["Coffee & Tea"],"location":{"lat":"42.3455488","long":"-71.1268545"},"rating":{"stars":4.5,"count":70}},{"name":"John Jeffries House","address":"14 David G Mugar Way, Boston, MA, 02114, USA","display_address":["14 David G Mugar Way","Boston, MA 02114"],"phone":"6173671866","image_url":"http://s3-media4.fl.yelpcdn.com/bphoto/uoDnNFgooso4oidj-Pg8sA/ms.jpg","yelp_id":"john-jeffries-house-boston","city":"Boston","country":"USA","hoods":["Beacon Hill"],"categories":["Bed & Breakfast"],"location":{"lat":"42.3606237","long":"-71.0713172"},"rating":{"stars":4.0,"count":25}},{"name":"YoCha","address":"406 Hancock St, Quincy, MA, 02171, USA","display_address":["406 Hancock St","Quincy, MA 02171"],"phone":"6173288883","image_url":"http://s3-media4.fl.yelpcdn.com/bphoto/TCCGYmFcAp8-PpG53BWA7A/ms.jpg","yelp_id":"yocha-quincy","city":"Boston","country":"USA","hoods":[],"categories":["Bubble Tea","Coffee & Tea","Ice Cream & Frozen Yogurt"],"location":{"lat":"42.2734505","long":"-71.0254308"},"rating":{"stars":3.5,"count":55}},{"name":"Rugged CrossFit","address":"8 Rugg Rd, Cambridge St & Emery Rd, Allston, MA, 02134, USA","display_address":["8 Rugg Rd","Allston, MA 02134"],"phone":"6172086462","image_url":"http://s3-media4.fl.yelpcdn.com/bphoto/4-ZK9o4T_4Lh8vsWeCsC9w/ms.jpg","yelp_id":"rugged-crossfit-allston","city":"Boston","country":"USA","hoods":["Allston/Brighton"],"categories":["Gyms","Trainers"],"location":{"lat":"42.3548157","long":"-71.1359745"},"rating":{"stars":4.5,"count":7}},{"name":"Forever 21","address":"343 Newbury St, Hereford St & Massachusetts Ave, Boston, MA, 02115, USA","display_address":["343 Newbury St","Boston, MA 02115"],"phone":"6172620212","image_url":"http://s3-media3.fl.yelpassets.com/bphoto/Wi30AfIXhpyfrEJyWcBEXA/ms.jpg","yelp_id":"forever-21-boston","city":"Boston","country":"USA","hoods":["Back Bay"],"categories":["Fashion"],"location":{"lat":"42.3487456","long":"-71.0856494"},"rating":{"stars":2.5,"count":52}},{"name":"Giacomo's","address":"431 Columbus Ave, Pembroke St & Holyoke St, Boston, MA, 02116, USA","display_address":["431 Columbus Ave","Boston, MA 02116"],"phone":"6175365723","image_url":"http://s3-media3.fl.yelpassets.com/bphoto/7Ov0DnMAMYWhaYO74Icvxg/ms.jpg","yelp_id":"giacomos-boston","city":"Boston","country":"USA","hoods":["Back Bay"],"categories":["Italian"],"location":{"lat":"42.3448523","long":"-71.0780435"},"rating":{"stars":4.0,"count":662}},{"name":"Coffee Central","address":"Massachusetts General Hospital, 55 Fruit St, Boston, MA, 02114, USA","display_address":["Massachusetts General Hospital","55 Fruit St","Boston, MA 02114"],"phone":null,"image_url":"http://s3-media3.fl.yelpcdn.com/bphoto/7d-PxyElLV80_4auZQNPCQ/ms.jpg","yelp_id":"coffee-central-boston","city":"Boston","country":"USA","hoods":[],"categories":["Coffee & Tea"],"location":{"lat":"42.3632571","long":"-71.0685829"},"rating":{"stars":4.5,"count":25}},{"name":"Natural Glow","address":"142 Commercial St, Ste C-2, Richmond St & W Commercial Wharf, Boston, MA, 02109, USA","display_address":["142 Commercial St","Ste C-2","Boston, MA 02109"],"phone":"6174180044","image_url":"http://s3-media2.fl.yelpcdn.com/bphoto/2HWBPkxQXJomCZZ_UejH5A/ms.jpg","yelp_id":"natural-glow-boston","city":"Boston","country":"USA","hoods":["North End"],"categories":["Tanning"],"location":{"lat":"42.362034","long":"-71.0503295"},"rating":{"stars":4.5,"count":22}},{"name":"Brothers Pest Control","address":"47 Desmoines Rd, Quincy, MA, 02169, USA","display_address":["47 Desmoines Rd","Quincy, MA 02169"],"phone":"7813294600","image_url":null,"yelp_id":"brothers-pest-control-quincy","city":"Boston","country":"USA","hoods":[],"categories":["Pest Control"],"location":{"lat":"42.2420418","long":"-70.9788747"},"rating":{"stars":1.0,"count":1}},{"name":"Trader Joe's","address":"211 Alewife Brook Pkwy, Cambridge, MA, 02138, USA","display_address":["211 Alewife Brook Pkwy","Cambridge, MA 02138"],"phone":"6174983201","image_url":"http://s3-media4.fl.yelpcdn.com/bphoto/Sn-DX7uNxB_4i3A69W4Smg/ms.jpg","yelp_id":"trader-joes-cambridge-2","city":"Boston","country":"USA","hoods":[],"categories":["Beer, Wine & Spirits","Grocery"],"location":{"lat":"42.390022","long":"-71.1435906"},"rating":{"stars":4.0,"count":68}},{"name":"Phan Lawrence L ,DDS","address":"1330 Beacon St, Ste 353, Brookline, MA, 02446, USA","display_address":["1330 Beacon St","Ste 353","Brookline, MA 02446"],"phone":"6177346300","image_url":null,"yelp_id":"phan-lawrence-l-dds-brookline-2","city":"Boston","country":"USA","hoods":["Coolidge Corner"],"categories":["General Dentistry"],"location":{"lat":"42.3423589","long":"-71.1219092"},"rating":{"stars":2.5,"count":3}},{"name":"Dunkin Donuts","address":"1800 Hyde Park Ave, Wolcott Sq & Neponset Valley Pky, Hyde Park, MA, 02136, USA","display_address":["1800 Hyde Park Ave","Hyde Park, MA 02136"],"phone":"6173645200","image_url":"http://s3-media1.fl.yelpcdn.com/bphoto/sDSkcnGGK4FkksbIDCU04w/ms.jpg","yelp_id":"dunkin-donuts-hyde-park-2","city":"Boston","country":"USA","hoods":["Hyde Park"],"categories":["Donuts","Restaurants"],"location":{"lat":"42.237236","long":"-71.131901"},"rating":{"stars":2.0,"count":1}},{"name":"Frio Rico","address":"360 R Bennington St, East Boston, MA, 02128, USA","display_address":["360 R Bennington St","East Boston, MA 02128"],"phone":"6175691505","image_url":"http://s3-media2.fl.yelpassets.com/bphoto/zc2W_obx8uGQl1UIL-D9Vw/ms.jpg","yelp_id":"frio-rico-east-boston-2","city":"Boston","country":"USA","hoods":["East Boston"],"categories":["Grocery","Ice Cream & Frozen Yogurt","Latin American"],"location":{"lat":"42.3798362","long":"-71.0265594"},"rating":{"stars":4.5,"count":16}},{"name":"Deputy Delivery/Northwest Airlines","address":", East Boston, MA, 02128, USA","display_address":["East Boston, MA 02128"],"phone":"6175698035","image_url":null,"yelp_id":"deputy-delivery-northwest-airlines-east-boston","city":"Boston","country":"USA","hoods":["East Boston"],"categories":["Transportation"],"location":{"lat":"42.3702137","long":"-71.0388601"},"rating":{"stars":1.0,"count":1}},{"name":"First Night","address":"36 Bromfield St, Ste 204, Boston, MA, 02116, USA","display_address":["36 Bromfield St","Ste 204","Boston, MA 02116"],"phone":"6175421399","image_url":"http://s3-media3.fl.yelpcdn.com/bphoto/mw5AycqlbLYmVZjjvocYGg/ms.jpg","yelp_id":"first-night-boston","city":"Boston","country":"USA","hoods":["Back Bay"],"categories":["Performing Arts","Local Flavor"],"location":{"lat":"42.3567635","long":"-71.0603783"},"rating":{"stars":3.5,"count":8}},{"name":"Joe Tecce's Ristorante & Caffe","address":"61 N Washington St, Cooper St & Medford St, Boston, MA, 02114, USA","display_address":["61 N Washington St","Boston, MA 02114"],"phone":"6177426210","image_url":"http://s3-media1.fl.yelpcdn.com/bphoto/_ectfG6zRqd-vflVHDH8ow/ms.jpg","yelp_id":"joe-tecces-ristorante-and-caffe-boston","city":"Boston","country":"USA","hoods":["North End"],"categories":["Italian"],"location":{"lat":"42.3643737","long":"-71.0582708"},"rating":{"stars":3.0,"count":25}},{"name":"Dianetics Foundation","address":"Church of Scientology, 448 Beacon St, Boston, MA, 02115, USA","display_address":["Church of Scientology","448 Beacon St","Boston, MA 02115"],"phone":"6172669500","image_url":"http://s3-media1.fl.yelpcdn.com/bphoto/apdpHCp7BeK75pMWEAgvug/ms.jpg","yelp_id":"dianetics-foundation-boston","city":"Boston","country":"USA","hoods":["Back Bay"],"categories":["Life Coach","Religious Organizations"],"location":{"lat":"42.3516979","long":"-71.0872935"},"rating":{"stars":3.0,"count":2}},{"name":"Joi Salon","address":"2 Atlantic Ave, Commercial St & Eastern Ave, Boston, MA, 02110, USA","display_address":["2 Atlantic Ave","Boston, MA 02110"],"phone":"6177236330","image_url":"http://s3-media2.fl.yelpcdn.com/bphoto/ED_JvinaaNSDC2JSunOx2Q/ms.jpg","yelp_id":"joi-salon-boston","city":"Boston","country":"USA","hoods":["North End"],"categories":["Hair Removal","Hair Salons","Skin Care"],"location":{"lat":"42.3641518","long":"-71.0508351"},"rating":{"stars":4.5,"count":60}},{"name":"Milton House of Pizza","address":"537 Adams St, Milton, MA, 02186, USA","display_address":["537 Adams St","Milton, MA 02186"],"phone":"6176967400","image_url":null,"yelp_id":"milton-house-of-pizza-milton","city":"Boston","country":"USA","hoods":[],"categories":["Pizza"],"location":{"lat":"42.2580148","long":"-71.0406502"},"rating":{"stars":3.5,"count":19}},{"name":"Audio Concepts","address":"870 Commonwealth Ave, Boston, MA, 02215, USA","display_address":["870 Commonwealth Ave","Boston, MA 02215"],"phone":"6177341800","image_url":"http://s3-media4.fl.yelpassets.com/bphoto/puiA7Y9pnaKQgshzttF9DA/ms.jpg","yelp_id":"audio-concepts-boston","city":"Boston","country":"USA","hoods":["Allston/Brighton"],"categories":["Home Theatre Installation","Lighting Fixtures & Equipment","Electronics"],"location":{"lat":"42.3506345","long":"-71.1143011"},"rating":{"stars":3.5,"count":8}},{"name":"One Wireless Solution- AT & T","address":"630 Gallivan Blvd, Grayson St & Belton St, Boston, MA, 02124, USA","display_address":["630 Gallivan Blvd","Boston, MA 02124"],"phone":"6172654630","image_url":null,"yelp_id":"one-wireless-solution-at-and-t-boston","city":"Boston","country":"USA","hoods":["Dorchester"],"categories":["Mobile Phones"],"rating":{"stars":5.0,"count":1}},{"name":"Earthbound Trading Company","address":"Cambridge Side Galleria, 100 Cambridge Side Pl, Cambridge, MA, 02141, USA","display_address":["Cambridge Side Galleria","100 Cambridge Side Pl","Cambridge, MA 02141"],"phone":"6174946571","image_url":null,"yelp_id":"earthbound-trading-company-cambridge","city":"Boston","country":"USA","hoods":["East Cambridge"],"categories":["Antiques"],"location":{"lat":"42.3468687","long":"-71.1515175"},"rating":{"stars":5.0,"count":1}},{"name":"Felix Shoe Repair","address":"1304 Massachusetts Ave, Cambridge, MA, 02138, USA","display_address":["1304 Massachusetts Ave","Cambridge, MA 02138"],"phone":null,"image_url":"http://s3-media2.fl.yelpcdn.com/bphoto/gFHgLwcg-BoKXJs9tBKXOA/ms.jpg","yelp_id":"felix-shoe-repair-cambridge","city":"Boston","country":"USA","hoods":["Harvard Square"],"categories":["Shoe Repair"],"location":{"lat":"42.372775","long":"-71.117474"},"rating":{"stars":3.5,"count":24}},{"name":"Ace Ticket Agency","address":"109 Causeway St, Canal St & Portland St, Boston, MA, 02114, USA","display_address":["109 Causeway St","Boston, MA 02114"],"phone":"6177833333","image_url":"http://s3-media1.fl.yelpcdn.com/bphoto/5fLsPikdf8TCwBFc2-Lyhw/ms.jpg","yelp_id":"ace-ticket-agency-boston","city":"Boston","country":"USA","hoods":[],"categories":["Ticket Sales"],"location":{"lat":"42.3642936","long":"-71.0617304"},"rating":{"stars":2.0,"count":9}},{"name":"Sal's Barbershop","address":"303A Huntington Ave, Boston, MA, 02115, USA","display_address":["303A Huntington Ave","Boston, MA 02115"],"phone":"6172477774","image_url":null,"yelp_id":"sals-barbershop-boston","city":"Boston","country":"USA","hoods":[],"categories":["Barbers"],"location":{"lat":"42.3412655","long":"-71.0871814"},"rating":{"stars":4.0,"count":11}},{"name":"The Mµseum","address":"72 1/2 Union Square, Somerville, MA, 02144, USA","display_address":["72 1/2 Union Square","Somerville, MA 02144"],"phone":null,"image_url":null,"yelp_id":"the-mµseum-somerville","city":"Boston","country":"USA","hoods":[],"categories":["Museums"],"location":{"lat":"42.3790048","long":"-71.0949583"},"rating":{"stars":5.0,"count":1}},{"name":"Subway","address":"260 Western Ave, Riverdale St & Speedway Ave, Allston, MA, 02134, USA","display_address":["260 Western Ave","Allston, MA 02134"],"phone":"6177835700","image_url":"http://s3-media1.fl.yelpassets.com/bphoto/NGn63m1dXoh7oauYEhmdAg/ms.jpg","yelp_id":"subway-allston-2","city":"Boston","country":"USA","hoods":["Allston/Brighton"],"categories":["Fast Food","Sandwiches"],"location":{"lat":"42.3637535","long":"-71.1335696"},"rating":{"stars":2.5,"count":16}},{"name":"Nanette Lepore","address":"119 Newbury St, Clarendon St & Dartmouth St, Boston, MA, 02116, USA","display_address":["119 Newbury St","Boston, MA 02116"],"phone":"6174219200","image_url":"http://s3-media4.fl.yelpcdn.com/bphoto/JdhXOnGBoxa4JxGSn3kewg/ms.jpg","yelp_id":"nanette-lepore-boston","city":"Boston","country":"USA","hoods":["Back Bay"],"categories":["Accessories","Swimwear","Women's Clothing"],"location":{"lat":"42.3485434","long":"-71.076578"},"rating":{"stars":4.0,"count":9}},{"name":"Sam's Restaurant","address":"36 School St, Quincy, MA, 02169, USA","display_address":["36 School St","Quincy, MA 02169"],"phone":"6174716767","image_url":"http://s3-media1.fl.yelpcdn.com/bphoto/jQG_IxPaEs7THxfG8MxP5g/ms.jpg","yelp_id":"sams-restaurant-quincy","city":"Boston","country":"USA","hoods":[],"categories":["Breakfast & Brunch","Diners"],"location":{"lat":"42.2447438","long":"-71.0015746"},"rating":{"stars":3.5,"count":16}},{"name":"Sweet","address":"225 Newbury St, Exeter St & Fairfield St, Boston, MA, 02116, USA","display_address":["225 Newbury St","Boston, MA 02116"],"phone":"6172672253","image_url":"http://s3-media2.fl.yelpcdn.com/bphoto/k1eb1u0Qz4WM-gCp9Eb4Cg/ms.jpg","yelp_id":"sweet-boston-3","city":"Boston","country":"USA","hoods":["Back Bay"],"categories":["Bakeries"],"location":{"lat":"42.3508649","long":"-71.0827587"},"rating":{"stars":3.0,"count":111}},{"name":"Night Shift Entertainment","address":"580 Harrison Ave, Ste 429, Monsignor Reynolds Way & Union Park St, Boston, MA, 02118, USA","display_address":["580 Harrison Ave","Ste 429","Boston, MA 02118"],"phone":"8572502064","image_url":null,"yelp_id":"night-shift-entertainment-boston","city":"Boston","country":"USA","hoods":["South End"],"categories":["Performing Arts"],"location":{"lat":"42.3412754","long":"-71.0695384"},"rating":{"stars":5.0,"count":2}},{"name":"MBTA - Quincy Center Station","address":"1300 Hancock St, Quincy, MA, 02169, USA","display_address":["1300 Hancock St","Quincy, MA 02169"],"phone":"6177746444","image_url":"http://s3-media3.fl.yelpcdn.com/bphoto/pDPslngaCLxI8Yc2ShTmZQ/ms.jpg","yelp_id":"mbta-quincy-center-station-quincy","city":"Boston","country":"USA","hoods":[],"categories":["Public Transportation"],"location":{"lat":"42.2512842","long":"-71.0035757"},"rating":{"stars":2.5,"count":14}},{"name":"In Style Barber Shop","address":"566 Cambridge St, Cambridge, MA, 02141, USA","display_address":["566 Cambridge St","Cambridge, MA 02141"],"phone":"6178641916","image_url":"http://s3-media2.fl.yelpcdn.com/bphoto/Cu3UX32m9XMTu1tCF9lRnQ/ms.jpg","yelp_id":"in-style-barber-shop-cambridge","city":"Boston","country":"USA","hoods":["East Cambridge"],"categories":["Barbers"],"location":{"lat":"42.3716094","long":"-71.0857429"},"rating":{"stars":4.5,"count":8}},{"name":"Mitchell John Salon","address":"67 Broad St, Milk St & Batterymarch Arm, Boston, MA, 02109, USA","display_address":["67 Broad St","Boston, MA 02109"],"phone":"6179510122","image_url":"http://s3-media4.fl.yelpcdn.com/bphoto/ZeynjSrmsdSqRUxGUSuBPA/ms.jpg","yelp_id":"mitchell-john-salon-boston-2","city":"Boston","country":"USA","hoods":["Financial District"],"categories":["Hair Extensions","Hair Stylists","Makeup Artists"],"location":{"lat":"42.3576856","long":"-71.0533232"},"rating":{"stars":4.5,"count":94}},{"name":"Interrobang Letterpress","address":"18 Kenton Rd, Washington St & Shurland St, Jamaica Plain, MA, 02130, USA","display_address":["18 Kenton Rd","Jamaica Plain, MA 02130"],"phone":"6175224236","image_url":"http://s3-media2.fl.yelpcdn.com/bphoto/ufStLOteQE89xaHZw1Jgyg/ms.jpg","yelp_id":"interrobang-letterpress-jamaica-plain-2","city":"Boston","country":"USA","hoods":["Jamaica Plain"],"categories":["Printing Services","Graphic Design"],"location":{"lat":"42.3063874","long":"-71.1058193"},"rating":{"stars":5.0,"count":1}},{"name":"Café Mami","address":"1815 Massachusetts Ave, Cambridge, MA, 02140, USA","display_address":["1815 Massachusetts Ave","Cambridge, MA 02140"],"phone":"6175479130","image_url":"http://s3-media4.fl.yelpassets.com/bphoto/QWLaydb2EcePdqdTVbbJLw/ms.jpg","yelp_id":"café-mami-cambridge-2","city":"Boston","country":"USA","hoods":["Porter Square"],"categories":["Japanese"],"location":{"lat":"42.3871179","long":"-71.1187396"},"rating":{"stars":4.5,"count":353}},{"name":"Vikos Pizza & Ribs","address":"855 River St, Wood Ave & George St, Mattapan, MA, 02126, USA","display_address":["855 River St","Mattapan, MA 02126"],"phone":"6173618456","image_url":null,"yelp_id":"vikos-pizza-and-ribs-mattapan","city":"Boston","country":"USA","hoods":["Hyde Park"],"categories":["American (Traditional)","Pizza"],"rating":{"stars":2.0,"count":4}},{"name":"SOFRA Bakery & Cafe","address":"1 Belmont St, Cambridge, MA, 02138, USA","display_address":["1 Belmont St","Cambridge, MA 02138"],"phone":"6176613161","image_url":"http://s3-media4.fl.yelpassets.com/bphoto/xXJ3MdcgC_CRKufeazXNEw/ms.jpg","yelp_id":"sofra-bakery-and-cafe-cambridge","city":"Boston","country":"USA","hoods":[],"categories":["Bakeries","Breakfast & Brunch","Middle Eastern"],"location":{"lat":"42.3749068","long":"-71.1503094"},"rating":{"stars":4.0,"count":431}},{"name":"Boston Upper Deck Trolley Tours","address":"100 Terminal St, Boston, MA, 02129, USA","display_address":["100 Terminal St","Boston, MA 02129"],"phone":"6177421440","image_url":"http://s3-media3.fl.yelpcdn.com/bphoto/LgkLRWnkDoC29OfUyaOABg/ms.jpg","yelp_id":"boston-upper-deck-trolley-tours-boston","city":"Boston","country":"USA","hoods":["Charlestown"],"categories":["Tours"],"location":{"lat":"42.3829433","long":"-71.0553639"},"rating":{"stars":3.5,"count":30}},{"name":"Cambridge Orthodontics","address":"1751 Massachusetts Ave, Cambridge, MA, 02140, USA","display_address":["1751 Massachusetts Ave","Cambridge, MA 02140"],"phone":"6174916800","image_url":"http://s3-media2.fl.yelpcdn.com/bphoto/vo0uBRl8rT6k6lJL3tkEzw/ms.jpg","yelp_id":"cambridge-orthodontics-cambridge","city":"Boston","country":"USA","hoods":["Porter Square"],"categories":["Orthodontists"],"location":{"lat":"42.384901","long":"-71.119055"},"rating":{"stars":4.0,"count":6}},{"name":"Mi Casa Tu Casa","address":"299 Hancock St, Freeport St & Dorchester Ave, Dorchester, MA, 02125, USA","display_address":["299 Hancock St","Dorchester, MA 02125"],"phone":"6179905754","image_url":"http://s3-media1.fl.yelpassets.com/bphoto/cg99dTYM69bc4fbXaxRTxg/ms.jpg","yelp_id":"mi-casa-tu-casa-dorchester","city":"Boston","country":"USA","hoods":["Dorchester"],"categories":["American (New)","Spanish"],"location":{"lat":"42.3166223","long":"-71.0566906"},"rating":{"stars":3.0,"count":18}},{"name":"Gondres Bakery","address":"333 Centre St, Gay Head St & Sunnyside St, Boston, MA, 02130, USA","display_address":["333 Centre St","Boston, MA 02130"],"phone":"6179833030","image_url":"http://s3-media1.fl.yelpcdn.com/bphoto/ebnHZxOh3rYtWHND_vcqKg/ms.jpg","yelp_id":"gondres-bakery-boston","city":"Boston","country":"USA","hoods":["Jamaica Plain"],"categories":["Bakeries","Desserts"],"location":{"lat":"42.3236762","long":"-71.1067627"},"rating":{"stars":5.0,"count":4}},{"name":"Good Seasons Trading","address":"911 Massachusetts Ave, Theodore Glynn Way & Island St, Boston, MA, 02118, USA","display_address":["911 Massachusetts Ave","Boston, MA 02118"],"phone":"6174458688","image_url":"http://s3-media4.fl.yelpcdn.com/bphoto/YeYonKQmgUGDX4F3PNVvUg/ms.jpg","yelp_id":"good-seasons-trading-boston","city":"Boston","country":"USA","hoods":[],"categories":["Local Services"],"location":{"lat":"42.331301","long":"-71.0719408"},"rating":{"stars":4.0,"count":1}},{"name":"SKECHERS Retail","address":"417 Washington St, Summer St & Franklin St, Boston, MA, 02108, USA","display_address":["417 Washington St","Boston, MA 02108"],"phone":"6174230412","image_url":"http://s3-media4.fl.yelpcdn.com/bphoto/TlmK2-Ze2LKLqriNzJuQkQ/ms.jpg","yelp_id":"skechers-retail-boston-2","city":"Boston","country":"USA","hoods":["Downtown"],"categories":["Men's Clothing","Shoe Stores","Women's Clothing"],"location":{"lat":"42.3559355","long":"-71.0551047"},"rating":{"stars":2.0,"count":6}},{"name":"A Healthy Balance","address":"14B Alleyne St, Quincy, MA, 02169, USA","display_address":["14B Alleyne St","Quincy, MA 02169"],"phone":"6174790500","image_url":"http://s3-media1.fl.yelpcdn.com/bphoto/pY5Xou7Pw73m6WiTUFgskg/ms.jpg","yelp_id":"a-healthy-balance-quincy","city":"Boston","country":"USA","hoods":[],"categories":["Trainers","Nutritionists","Weight Loss Centers"],"location":{"lat":"42.256165","long":"-71.007907"},"rating":{"stars":4.5,"count":8}},{"name":"Whole Foods Market","address":"45 Beacon St, Somerville, MA, 02143, USA","display_address":["45 Beacon St","Somerville, MA 02143"],"phone":"6179029300","image_url":"http://s3-media2.fl.yelpcdn.com/bphoto/ZOtbbeXcdmb9yKFV-c55wg/ms.jpg","yelp_id":"whole-foods-market-somerville-2","city":"Boston","country":"USA","hoods":[],"categories":["Grocery"],"location":{"lat":"42.3760047","long":"-71.1030766"},"rating":{"stars":3.0,"count":23}},{"name":"Sunrise Massage","address":"199 Boylston St, Chestnut Hill, MA, 02467, USA","display_address":["199 Boylston St","Chestnut Hill, MA 02467"],"phone":"6179696666","image_url":null,"yelp_id":"sunrise-massage-chestnut-hill","city":"Boston","country":"USA","hoods":[],"categories":["Massage"],"location":{"lat":"42.3215125","long":"-71.1756718"},"rating":{"stars":3.0,"count":2}},{"name":"Haymarket Pizza","address":"106 Blackstone St, Boston, MA, 02109, USA","display_address":["106 Blackstone St","Boston, MA 02109"],"phone":"6177238585","image_url":"http://s3-media2.fl.yelpassets.com/bphoto/MPHEZUgfQot0-7P2ssMhyQ/ms.jpg","yelp_id":"haymarket-pizza-boston","city":"Boston","country":"USA","hoods":[],"categories":["Pizza"],"location":{"lat":"42.3617505","long":"-71.05644"},"rating":{"stars":4.0,"count":80}},{"name":"Eye Associates of Somerville","address":"174 Broadway, Somerville, MA, 02145, USA","display_address":["174 Broadway","Somerville, MA 02145"],"phone":"6176661800","image_url":"http://s3-media4.fl.yelpassets.com/bphoto/viB__yVG478ivoabjws9lA/ms.jpg","yelp_id":"eye-associates-of-somerville-somerville","city":"Boston","country":"USA","hoods":[],"categories":["Optometrists","Eyewear & Opticians"],"location":{"lat":"42.3886467","long":"-71.0864817"},"rating":{"stars":3.0,"count":6}}]